article_id,title,publication,date,publisher_location,lat,lng,origin_location,origin_lat,origin_lng,reprint_type,group_reprint_id,author,tropes
AlbanyEveningJournal1853,"""A Female Robinson Crusoe""",Albany (NY) Evening Journal,1853-11-02,"Albany, New York",42.6511674,-73.754968,"San Francisco, California",37.7879363,-122.4075201,truncated,Goliah1853_DPT_reprint,[Goliah],Noble Savage; Anti-Russian Sentiment; Indian Queen; Signs Easily Interpreted; Discovery; Wonder
AlbanyEveningJournal1879,"""A Feminine Crusoe. Alone on a Dreary Desert Island for Eighteen Years""",Albany (NY) Evening Journal,1879-02-14,"Albany, New York",42.6511674,-73.754968,"Winona, Minnesota",44.0500054,-91.6392294,paraphrase,Stuart1878_reprint,,Girl Crusoe; Jump Overboard; Discovery; Noble Savage; Indian Queen
AlexandriaGazette1889,"""A Veritable Female Crusoe""",Alexandria (VA) Gazette,1889-07-18,"Alexandria, Virginia",38.8051095,-77.0470229,"New York, New York",40.7127281,-74.0060152,paraphrase,Hardacre1880_SM_reprint,,Noble Savage; Indians as Savage; Discovery; Indian Queen
AlleganyCountyRepublican1901,"""The Woman of San Nicolas Island. A Strange Story of the Pacific Coast""",Allegany County (NY) Republican,1901-10-25,"Friendship, New York",42.2064566,-78.1375099,"Los Angeles, California",34.0536909,-118.242766,direct,FHDudley1901_reprint,[M.E. Dudley],Noble Savage; Indians as Savage; No Boat Available; Discovery; Indian Queen; Signs Easily Interpreted
Altrocchi1944,"""The Wild Girl of the Santa Barbara Channel Islands""",California Folklore Quarterly,1944-02-14,"Berkeley, California",37.8708393,-122.272863,"Berkeley, California",37.8708393,-122.272863,paraphrase,Fife1943_reprint,Rudolph Altrocchi,Wild Child; Noble Savage; Girl Crusoe
AmericanAnthropologist1905,"""Proceedings of the California Meeting of the American Anthropological Association, August 29-September 2, 1905""",American Anthropologist,1905-08-29,"Lancaster, Pennsylvania",40.0379958,-76.3056707,,,,,,,Vanishing Indians; Origins
ArizonaWeeklyJournalMiner1893,"""An Island Transformed""",Arizona Weekly Journal-Miner,1893-07-19,"Prescott, Arizona",34.539984,-112.468812,"Boston, Massachusetts",42.3588336,-71.0578303,paraphrase,Roberts1886_reprint,,Wonder
ArkansasCityTraveler1892,"""Wild Dogs Ate Her Child. The Story of San Nicolas Island and Its Last Inhabitant""",Arkansas City (KS) Traveler,1892-04-07,"Arkansas City, Kansas",37.0622562,-97.0388338,"San Francisco, California",37.7879363,-122.4075201,direct,SanFranciscoExaminer1892_reprint,,Discovery; Wonder; Indian Queen; Vanishing Indians; Origins
AugustaChronicle1885,"""A Feminine Crusoe. Eighteen Years on a Desert Island—How She Lived and Dressed""",Augusta (GA) Chronicle,1885-05-29,"Augusta, Georgia",33.4709714,-81.9748429,"Rochester, New York",43.157285,-77.615214,truncated,Witter1885_DAC_reprint,[Fred Spalding Witter],Origins; Discovery; Noble Savage; Wonder; Indian Queen
BangorDailyWhigAndCourier1885,"""Queen of San Nicolas. The Feminine Crusoe of the Pacific Ocean—Eighteen Years Alone on a Desert Island Seventy Miles from Shore""",Bangor (ME) Daily Whig and Courier,1885-05-21,"Bangor, Maine",44.8016255,-68.7713289,"Rochester, New York",43.157285,-77.615214,truncated,Witter1885_DAC_reprint,[Fred Spalding Witter],Origins; Discovery; Noble Savage; Wonder; Indian Queen
BelvidereStandard1853,"""A Female Crusoe""",Belvidere (IL) Standard and Boone Co. Advertiser,1853-12-06,"Belvidere, Illinois",42.2579991,-88.841734,"Newburyport, Massachusetts",42.8116592,-70.8719271,truncated,TheDailyHerald1853_reprint,,Discovery; Jump Overboard
Bennett1898,"""Our Seaboard Islands of the Pacific""",Harper's New Monthly Magazine,1898-11-01,"Ithaca, New York",42.4374175,-76.5483724,"Ithaca, New York",42.4374175,-76.5483724,original,Bennett1898_reprint,John E. Bennett,Wonder; Indians as Savage; Noble Savage; Jump Overboard
Bennett1936,"""Mrs. Robinson Crusoe: She Lived Isolated, for Eighteen Years on San Nicolas—off our Southern California Shores. When They Rescued Her She Withered and Died in the Discomfort of Our Cramped Civilization""",Los Angeles Times Sunday Magazine,1936-08-09,"Los Angeles, California",34.0536909,-118.242766,"New York, New York",40.7127281,-74.0060152,paraphrase,Hardacre1880_SM_reprint,William Crosby Bennett,Girl Crusoe; Noble Savage; Discovery; Indian Queen; Signs Easily Interpreted; Indians as Savage; Vanishing Indians; Jump Overboard
Benson1997,"""Manuscript 6"" in ""Unpublished Manuscripts""","The Noontide Sun: The Field Journals of the Reverend Stephen Bowers, Pioneer California Archaeologist",1997-10-01,"Banning, California",33.9255685,-116.875289,,,,,,Arlene Benson,Noble Savage; No Boat Available; Discovery; Indian Queen; Wild Child; Signs Easily Interpreted
BismarckDailyTribune1885,"""A Feminine Crusoe. How She Lived Eighteen Years on a Desert Island. The Story of the Lost Woman of San Nicolas—Her Ingenuity and Fertility of Invention—A Wonderful History""",Bismarck (ND) Daily Tribune,1885-06-28,"Bismarck, North Dakota",46.808327,-100.783739,"Rochester, New York",43.157285,-77.615214,truncated,Witter1885_DAC_reprint,[Fred Spalding Witter],Origins; Discovery; Noble Savage; Wonder; Indian Queen
BismarckDailyTribune1892,"""The Isle of Skulls""",Bismarck (ND) Daily Tribune,1892-04-27,"Bismarck, North Dakota",46.808327,-100.783739,"San Francisco, California",37.7879363,-122.4075201,direct,SanFranciscoExaminer1892_reprint,,Discovery; Wonder; Indian Queen; Vanishing Indians; Origins
Blanco1882,"""Santa Barbara. A Visitor's Views Regarding Its Climate and Attractions""",Santa Barbara (CA) Daily Press,1882-02-23,"Santa Barbara, California",34.4221319,-119.702667,"Indianapolis, Indiana",39.7683331,-86.1583502,truncated,Blanco1882_TIS_reprint,Blanco,Wild Child; Vanishing Indians; Noble Savage
Blanco1882_TIS,"""California Letter. Santa Barbara--Climate--Flowers--Channel Islands--Personal and Other Matters""",Indianapolis (IN) Sentinel,1882-02-12,"Indianapolis, Indiana",39.7683331,-86.1583502,"Indianapolis, Indiana",39.7683331,-86.1583502,original,Blanco1882_TIS_reprint,Blanco,Wild Child; Vanishing Indians; Noble Savage
BostonEveningTranscript1879,"""A Female Crusoe""",Boston Evening Transcript,1879-03-05,"Boston, Massachusetts",42.3588336,-71.0578303,"Winona, Minnesota",44.0500054,-91.6392294,truncated,Stuart1878_reprint,[Absalom B. Stuart],Girl Crusoe; Jump Overboard; Discovery; Wonder
Bowers1892,,The Lone Woman of San Nicolas Island,1892-12-20,"Ventura, California",34.4458248,-119.0779359,"Ventura, California",34.4458248,-119.0779359,original,Bowers1892_reprint,Stephen Bowers,Noble Savage; Indians as Savage; Anti-Russian Sentiment; No Boat Available; Discovery; Indian Queen; Signs Easily Interpreted; Wild Child
Brantingham1993,"""Island Woman's Origins Still Hotly Debated""",Santa Barbara (CA) News-Press,1993-07-11,"Santa Barbara, California",34.4221319,-119.702667,,,,,,Barney Brantingham,Noble Savage
Bryan1930,"""San Nicolas Island, Treasure House of the Ancients: Part I""",Art and Archaeology,1930-04-01,"Concord, New Hampshire",43.207178,-71.537476,,,,,,Bruce Bryan,Indians as Savage; Wonder; Origins; Anti-Russian Sentiment; Jump Overboard; Discovery; Vanishing Indians
BuffaloCourierRecord1897,"""Fruitful Field of Exploration. Channel Islands, off the California Coast. Golgotha of [the] Pacific. Acres of Barren Rocks and Sandy Wastes Strewn with Human Bones. Natives Only a Memory. Wild Woman of San Nicolas—Strange Relics of a Vanished Race—Heaps of Whalebone""",Buffalo (NY) Courier-Record,1897-05-30,"Buffalo, New York",42.8864163,-78.8781493,"New York, New York",40.7127281,-74.0060152,paraphrase,Eames1892_reprint,,Wonder; Vanishing Indians; Discovery; Indian Queen; Noble Savage
BurlingtonFreePress1879,"""A Feminine Crusoe. Alone on a Dreary Desert Island for Eighteen Years""",Burlington (VT) Free Press,1879-03-07,"Burlington, Vermont",44.4761601,-73.212906,"Winona, Minnesota",44.0500054,-91.6392294,paraphrase,Stuart1878_reprint,,Girl Crusoe; Jump Overboard; Discovery; Noble Savage; Indian Queen
CambriaFreeman1879,"""A Female Robinson Crusoe""",Cambria (PA) Freeman,1879-03-21,"Ebensburg, Pennsylvania",40.4852783,-78.7248434,"Salem, New York",43.1714488,-73.3301547,direct,SalemWeeklyReview1879_reprint,,
CambriaFreeman1880,"""An Indian Female Crusoe. The Strange Story of a Woman Who Lived Eighteen Years Alone on an Island in the Pacific""",Cambria (PA) Freeman,1880-09-24,"Ebensburg, Pennsylvania",40.4852783,-78.7248434,"Winona, Minnesota",44.0500054,-91.6392294,truncated,Stuart1878_reprint,[Absalom B. Stuart],Discovery; Indian Queen; Noble Savage; Signs Easily Interpreted
CambriaFreeman1885,"""A Feminine Crusoe""",Cambria (PA) Freeman,1885-07-03,"Ebensburg, Pennsylvania",40.4852783,-78.7248434,"Rochester, New York",43.157285,-77.615214,truncated,Witter1885_DAC_reprint,[Fred S. Witter],Origins; Discovery; Noble Savage; Wonder
CambridgeChronicle1853,"""A Female Robinson Crusoe""",Cambridge (MA) Chronicle,1853-11-12,"Cambridge, Massachusetts",42.3656347,-71.1040018,"San Francisco, California",37.7879363,-122.4075201,truncated,Goliah1853_DPT_reprint,[Goliah],Anti-Russian Sentiment; Indian Queen; Noble Savage; Signs Easily Interpreted; Discovery; Wonder
Carl1952,"""The Lost Woman of San Nicolas Island""",Western Folklore,1952-04-01,"Long Beach, California",33.7690164,-118.191604,"Los Angeles, California",34.0536909,-118.242766,paraphrase,LosAngelesTimes1951_reprint,Robert L. Carl,Vanishing Indians; Jump Overboard; Signs Easily Interpreted; Anti-Russian Sentiment; Indians as Savage
ChicagoDailyTribune1872,"""Hona Maria""",Chicago Daily Tribune,1872-08-11,"Chicago, Illinois",41.8755616,-87.6244212,"San Francisco, California",37.7879363,-122.4075201,direct,Walcott1872_reprint,[Josephine Walcott],Noble Savage; Vanishing Indians; No Boat Available; Discovery; Indian Queen; Signs Easily Interpreted
ChicagoDailyTribune1891,"""She Lived Alone Among Skeletons""",Chicago Daily Tribune,1891-10-05,"Chicago, Illinois",41.8755616,-87.6244212,"Ventura, California",34.4458248,-119.0779359,truncated,TheWeeklyFreePress1891_reprint,,Origins; Jump Overboard
ChicagoDailyTribune1892,"""Covered with Human Skeletons. The Story of San Nicolas Island and Its Last Inhabitant""",Chicago Daily Tribune,1892-04-16,"Chicago, Illinois",41.8755616,-87.6244212,"San Francisco, California",37.7879363,-122.4075201,direct,SanFranciscoExaminer1892_reprint,,Origins; Discovery; Indian Queen; Vanishing Indians; Noble Savage
ChicagoDailyTribune1902,"""To Explore the Strange Island of San Nicolas: An Expedition from the University of California Will Visit the Grewsome Land That is Spread Over with Skulls and Thighbones of a Lost Race""",Chicago Daily Tribune,1902-03-02,"Chicago, Illinois",41.8755616,-87.6244212,"New York, New York",40.7127281,-74.0060152,paraphrase,Eames1892_reprint,[Henry G. Tinsley],Wonder; Vanishing Indians; Discovery; Indian Queen; Indians as Savage
ChristianAdvocateAndJournal1847,"""A Female Crusoe""",New York Christian Advocate and Journal,1847-03-03,"New York, New York",40.7127281,-74.0060152,"Boston, Massachusetts",42.3588336,-71.0578303,direct,TheBostonAtlas1847_reprint,,Lazy Indian; Noble Savage; Jump Overboard; Indian Queen; Girl Crusoe; Wild Child
ChristianUnion1885,"""A Female Crusoe""",New York Christian Union,1885-05-21,"New York, New York",40.7127281,-74.0060152,"Rochester, New York",43.157285,-77.615214,truncated,Witter1885_DAC_reprint,[Fred Spalding Witter],Discovery; Indian Queen; Noble Savage; Wonder
CincinnatiCommercialTribune1885,"""A Feminine Crusoe. Eighteen Years on a Desert Island—How She Lived and Dressed""",Cincinnati Commercial Gazette,1885-05-18,"Cincinnati, Ohio",39.1014537,-84.5124602,"Rochester, New York",43.157285,-77.615214,truncated,Witter1885_DAC_reprint,[Fred Spalding Witter],Origins; Discovery; Noble Savage; Wonder; Indian Queen
ClevelandPlainDealer1904,"""Relics of a Vanished Race. Found on a Lonely Island Off California""",Cleveland Plain Dealer,1904-02-14,"Cleveland, Ohio",41.4996574,-81.6936772,"New York, New York",40.7127281,-74.0060152,paraphrase,Eames1892_reprint,,Wonder; Vanishing Indians; Noble Savage
Clifford1921,"""Hona Maria""",Overland Monthly,1921-11-01,"San Francisco, California",37.7879363,-122.4075201,"San Francisco, California",37.7879363,-122.4075201,direct,Walcott1872_reprint,Josephine Clifford,Noble Savage; Vanishing Indians; No Boat Available; Discovery; Indian Queen; Signs Easily Interpreted
CommercialAdvertiser1857,"""A California Crusoe. Narrative of a Woman Who Lived Eighteen Years Alone Upon the Island of San Nicolas""",Honolulu (Hawaii) Pacific Commercial Advertiser,1857-08-06,"Honolulu, Hawaii",21.304547,-157.855676,"San Francisco, California",37.7879363,-122.4075201,truncated,Russell1856_HCF_reprint,C. J. W. Russell,Indians as Savage; No Boat Available; Discovery; Indian Queen; Signs Easily Interpreted; Vanishing Indians; Noble Savage
CornwallChronicle1879,"""Swearing by Dispatch""",Launceston (AUS) Cornwall Chronicle,1879-05-21,"Launceston, Tasmania, Australia",-41.4340813,147.1373496,"Winona, Minnesota",44.0500054,-91.6392294,paraphrase,Stuart1878_reprint,,Noble Savage; Signs Easily Interpreted; Indian Queen
CorsicanaDailySun1921,"""Alone For Eighteen Years. Indian Woman, Abandoned on Desert Island, Finally Found by Party of Otter Hunters""",Corsicana (TX) Daily Sun,1921-06-20,"Corsicana, Texas",32.0938236,-96.464675,"Corsicana, Texas",32.0938236,-96.464675,original,CorsicanaDailySun1921_reprint,,Discovery; Wonder; Girl Crusoe; Wild Child; Jump Overboard
CortlandNews1885,"""Crusoe in Petticoats. A Woman Who Was Eighteen Years on a Desert Island""",Cortland (NY) News,1885-06-26,"Cortland, New York",42.5842136,-76.0704906,"Rochester, New York",43.157285,-77.615214,truncated,Witter1885_DAC_reprint,[Fred Spalding Witter],Origins; Discovery; Indian Queen; Noble Savage; Wonder
CortlandStandard1926,"""Alone For Eighteen Years. Indian Woman, Abandoned on Desert Island, Finally Found by Party of Otter Hunters""",Cortland (NY) Standard,1926-12-10,"Cortland, New York",42.5842136,-76.0704906,"Corsicana, Texas",32.0938236,-96.464675,direct,CorsicanaDailySun1921_reprint,,Discovery; Wonder; Girl Crusoe; Wild Child; Jump Overboard
Cronin1944,"""Juana Maria""",Priestly Studies,1944-01-01,"Santa Barbara, California",34.4221319,-119.702667,,,,,,Blaise P. Cronin,Wonder; Noble Savage; Indians as Savage; Jump Overboard; No Boat Available; Girl Crusoe; Discovery; Indian Queen; Signs Easily Interpreted
CurrentLiterature1892,"""Isle of Skulls""",New York Current Literature,1892-05-01,"New York, New York",40.7127281,-74.0060152,"San Francisco, California",37.7879363,-122.4075201,direct,SanFranciscoExaminer1892_reprint,,Discovery; Wonder; Indian Queen; Vanishing Indians; Origins
Daily1989,"""The Lone Woman of San Nicolas Island: A New Hypothesis on Her Origin""",California History,1989-03-01,"Oakland, California",37.8044557,-122.271356,,,,,,Marla Daily,Indians as Savage; Wild Child
DailyAltaCalifornia1853,"""Female Robinson Crusoe—The Ladies' Fair""",San Francisco Daily Alta California,1853-11-13,"San Francisco, California",37.7879363,-122.4075201,"San Francisco, California",37.7879363,-122.4075201,original,DailyAltaCalifornia1853_reprint,,Discovery; Signs Easily Interpreted
DailyDemocraticStateJournal1853,No title,Sacramento (CA) Daily Democratic State Journal,1853-10-13,"Sacramento, California",38.5810606,-121.493895,,,,,,,Wild Child
DailyEveningHerald1853,"""The Wild Woman of California""",Marysville (CA) Daily Evening Herald,1853-11-03,"Marysville, California",39.1457247,-121.5913516,"San Francisco, California",37.7879363,-122.4075201,direct,Santiago1853_reprint,,Wild Child; Signs Easily Interpreted; Indians as Savage; Noble Savage; Vanishing Indians
DailyIndependent1883,"""Otter Hunting. The Sharp Shooters of the Sea. The War upon the Furry Beauties of the Kelp. Five Hundred Dollar Skins and How They Are Obtained—A Difficult but Profitable Industry""",Santa Barbara (CA) Daily Independent,1883-11-08,"Santa Barbara, California",34.4221319,-119.702667,,,,,,,Noble Savage
DailyIndependent1892,"""The Town in Brief""",Santa Barbara (CA) Daily Independent,1892-03-11,"Santa Barbara, California",34.4221319,-119.702667,,,,,,,Vanishing Indians
DailyNews1853,"""A Female Crusoe""",Savannah (GA) Daily Morning News,1853-11-05,"Savannah, Georgia",32.0790074,-81.0921335,"Newburyport, Massachusetts",42.8116592,-70.8719271,truncated,TheDailyHerald1853_reprint,,Discovery; Jump Overboard; Wild Child; Noble Savage
DailyNewsAndIndependent1916,"""Lobsters Being Exterminated by Ravenous Fish. George Nidevar Brings from Story from Islands of Havoc Wrought""",Santa Barbara (CA) Daily News and Independent,1916-02-29,"Santa Barbara, California",34.4221319,-119.702667,,,,,,,Vanishing Indians
DailyPeople1906,"""A Woman Crusoe""",New York Daily People,1906-02-11,"New York, New York",40.7127281,-74.0060152,"New York, New York",40.7127281,-74.0060152,truncated,Gassaway1905_reprint,[Frank Gassaway],Wonder; Noble Savage; Girl Crusoe; Wild Child
DailyPlacerTimesAndTranscript1853,"""The Female Robinson Crusoe—Ladies' Fair""",San Francisco Daily Placer Times and Transcript,1853-11-14,"San Francisco, California",37.7879363,-122.4075201,"San Francisco, California",37.7879363,-122.4075201,paraphrase,DailyAltaCalifornia1853_reprint,,Noble Savage
Dall1874,"""The Lords of the Isles""",Overland Monthly,1874-06-15,"San Francisco, California",37.7879363,-122.4075201,,,,,,W. H. Dall,Indians as Savage; Vanishing Indians; Noble Savage
DavenportMorningTribune1889,"""A Female Crusoe. A Woman Left Alone on an Uninhabited Island for Fifteen Years""",Davenport (IA) Morning Tribune,1889-03-28,"Davenport, Iowa",41.5224692,-90.5756401,"New York, New York",40.7127281,-74.0060152,paraphrase,Hardacre1880_SM_reprint,,Noble Savage; Indians as Savage; Discovery; Indian Queen
Davidson1943_TB,"""Archeologists Bare Channel Islands' Secret; Story of Mother Love Delayed 90 Years. Ghost on San Nicholas Island, Was Indian Mother Who Would Not Leave Her Baby""",Danville (VA) Bee,1943-07-19,"Danville, Virginia",36.5879877,-79.3916713,"Danville, Virginia",36.5879877,-79.3916713,original,Davidson1943_TB_reprint,Garber Davidson,Vanishing Indians; Signs Easily Interpreted; Noble Savage
Davidson1943_TGDN,"""Ghost of California Island Is Discovered to Be Indian""",Galveston (TX) Daily News,1943-07-19,"Galveston, Texas",29.3872254,-94.992736,"Danville, Virginia",36.5879877,-79.3916713,truncated,Davidson1943_TB_reprint,Garber Davidson,Vanishing Indians; Signs Easily Interpreted; Noble Savage
Dawson1901,"""Otter Hunting on the Santa Barbaras"" in ""California in '41. Texas in '51. Memoirs""","Western Americana: Frontier History of the Trans-Mississippi West, 1550-1900",1901-01-01,"New Haven, Connecticut",41.3082138,-72.9250518,,,,,,Nicholas Dawson,Jump Overboard
DecaturDailyReview1879,"""A Feminine Crusoe. Alone on a Dreary Desert Island for 18 Years""",Decatur (IL) Daily Review,1879-02-27,"Decatur, Illinois",39.8454163,-88.9524151,"Winona, Minnesota",44.0500054,-91.6392294,paraphrase,Stuart1878_reprint,,Girl Crusoe; Jump Overboard; Discovery; Noble Savage; Indian Queen
DemocratAndChronicle1892,"""Covered with Skeletons. The Story of San Nicolas Island and Its Last Inhabitant""",Rochester (NY) Democrat and Chronicle,1892-03-28,"Rochester, New York",43.157285,-77.615214,"San Francisco, California",37.7879363,-122.4075201,direct,SanFranciscoExaminer1892_reprint,,Discovery; Wonder; Indian Queen; Vanishing Indians; Origins
DemocratAndChronicle1894,"""Romance of the Sea. Relics of a Lost Tribe of Indians Were Found""",Rochester (NY) Democrat and Chronicle,1894-12-30,"Rochester, New York",43.157285,-77.615214,"San Francisco, California",37.7879363,-122.4075201,direct,SanFranciscoChronicle1894_reprint,,Wonder; Vanishing Indians; Origins; Noble Savage
DemocratAndChronicle1901,"""Channel Islands Land of Romance. Homes of Lost Islanders to be Visited by Explorers. Rich Fields for Work. Questions as to the Archipelago Off the California Coast—Countless Skulls and One Live Woman of St. Nicholas""",Rochester (NY) Democrat and Chronicle,1901-01-07,"Rochester, New York",43.157285,-77.615214,"New York, New York",40.7127281,-74.0060152,paraphrase,Eames1892_reprint,,Wonder; Vanishing Indians; Discovery; Indian Queen; Noble Savage
DemocraticHerald1901,"""The Woman of San Nicolas Island. A Strange Story of the Pacific Coast""",Clyde (NY) Democratic Herald,1901-10-23,"Clyde, New York",43.084231,-76.869405,"Los Angeles, California",34.0536909,-118.242766,direct,FHDudley1901_reprint,[M.E. Dudley],Noble Savage; Indians as Savage; No Boat Available; Discovery; Indian Queen; Signs Easily Interpreted
DenisChauvin1863,"""L'Indienne de Santa-Barbara"" in",Les Vrais Robinsons,1863-01-01,"Paris, Île-de-France, France",48.8534951,2.3483915,,,,,,Ferdinand Denis and Victor Chauvin,
Dittman1878,Narrative of a Seafaring Life on the Coast of California,Manuscript C-D67,1878-01-01,,,,,,,,,Carl Dittman,Indian Queen; Noble Savage
Dittman2004,"""Good Grief, Charley Brown!""",Ancestors West,2004-09-01,"Santa Barbara, California",34.4221319,-119.702667,,,,,,Richard H. Dittman,
Doran1980,"""The Lone Woman of San Nicolas: An Evaluation of the Bibliography with Discussion of Historical Events""",Pieces of Eight Channel Islands: A Bibliographical Guide and Source Book ed. Adelaide LeMert Doran,1980-01-01,"Glendale, California",34.1469416,-118.2478471,,,,,,Adelaide LeMert Doran,Jump Overboard; Vanishing Indians; No Boat Available; Wild Child; Discovery; Indians as Savage
Drake1931,"""The Little Known Islands That Lie off Our Coast""",Los Angeles Times Sunday Magazine,1931-05-31,"Los Angeles, California",34.0536909,-118.242766,,,,,,Waldo Drake,Noble Savage; Vanishing Indians; Indians as Savage; Anti-Russian Sentiment
Eames1892,"""Three Weeks on a Weird Island""",Frank Leslie's Popular Monthly,1892-12-01,"New York, New York",40.7127281,-74.0060152,"New York, New York",40.7127281,-74.0060152,original,Eames1892_reprint,Ninetta Eames,
Eames1893,"""The Island of San Nicholas. The Lone Woman Who Was the Last of Her Race. A Broad Plateau Literally Strewn with Human Bones. A Little Island Which Contains Many Elements of Historical Mystery. The Experience of Recent Visitors""",Los Angeles Herald,1893-03-12,"Los Angeles, California",34.0536909,-118.242766,"New York, New York",40.7127281,-74.0060152,paraphrase,Eames1892_reprint,Ninetta Eames,Wonder; Girl Crusoe; Vanishing Indians; Noble Savage; Indians as Savage; Origins
EdgefieldAdvertiser1847,"""A Female Crusoe""",Edgefield (SC) Advertiser,1847-02-10,"Edgefield, South Carolina",33.7635851,-81.9759066,"Boston, Massachusetts",42.3588336,-71.0578303,direct,TheBostonAtlas1847_reprint,,Noble Savage; Lazy Indian; Jump Overboard; Indian Queen; Girl Crusoe; Wild Child
Edwords1906,"""A Female Crusoe on the Island Of Skulls""",San Francisco Chronicle,1906-12-30,"San Francisco, California",37.7879363,-122.4075201,,,,,,Clarence E. Edwords,Girl Crusoe; Noble Savage; Wild Child; Vanishing Indians; Indians as Savage; Anti-Russian Sentiment; Wonder
Eisen1904,"""San Nicolas Island"" in ""The Islands Considered Separately""",An Account of the Indians of the Santa Barbara Islands in California,1904-01-01,"London, England, United Kingdom",51.5074456,-0.1277653,,,,,,Gustav Eisen,Vanishing Indians; Indians as Savage; No Boat Available; Indian Queen; Noble Savage; Signs Easily Interpreted
Engelhardt1923,"""H. The Lone Woman of San Nicolas""",Missions and Missionaries of California,1923-01-01,"San Francisco, California",37.7879363,-122.4075201,,,,,,Zephyrin Engelhardt,Jump Overboard; Signs Easily Interpreted; Wild Child; Noble Savage
EnglewoodTimes1905,"""Story of a Woman Crusoe. Unlike Defoe's Hero, Her End Is Pathetic in the Extreme""",Englewood (IL) Times,1905-07-14,"Chicago, Illinois",41.8755616,-87.6244212,"New York, New York",40.7127281,-74.0060152,truncated,Gassaway1905_reprint,[Frank Gassaway],Girl Crusoe; Noble Savage; Wild Child
ErieCountyIndependent1921,"""Alone For Eighteen Years. Indian Woman, Abandoned on Desert Island, Finally Found by Party of Otter Hunters""",Erie County (NY) Independent,1921-07-07,"Hamburg, New York",42.716293,-78.828717,"Corsicana, Texas",32.0938236,-96.464675,direct,CorsicanaDailySun1921_reprint,,Discovery; Wonder; Girl Crusoe; Wild Child; Jump Overboard
EveningNews1892,"""The Isle of Skulls""",Sydney (AUS) Evening News,1892-06-29,"Sydney, New South Wales, Australia",-33.8698439,151.2082848,"San Francisco, California",37.7879363,-122.4075201,direct,SanFranciscoExaminer1892_reprint,,Discovery; Wonder; Indian Queen; Vanishing Indians; Origins
EveningStar1853,"""A Female Crusoe""",Washington (DC) Evening Star,1853-10-28,"Washington, DC",38.8950982,-77.0363849,"Newburyport, Massachusetts",42.8116592,-70.8719271,truncated,TheDailyHerald1853_reprint,C.,Discovery; Jump Overboard; Wild Child; Noble Savage
FHDudley1901,"""The Tragedy of San Nicholas Island""",Los Angeles Saturday Post,1901-06-01,"Los Angeles, California",34.0536909,-118.242766,"Los Angeles, California",34.0536909,-118.242766,original,FHDudley1901_reprint,F. H. Dudley,Noble Savage; Indians as Savage; No Boat Available; Discovery; Indian Queen; Signs Easily Interpreted
FayettevilleObserver1853,"""A Female Crusoe""",Fayetteville (NC) Observer,1853-11-10,"Fayetteville, North Carolina",35.0525759,-78.878292,"Newburyport, Massachusetts",42.8116592,-70.8719271,direct,TheDailyHerald1853_reprint,,Discovery; Jump Overboard; Wild Child; Noble Savage
Fife1943,"""The Wild Girl of the Santa Barbara Channel Islands""",California Folklore Quarterly,1943-04-01,"Berkeley, California",37.8708393,-122.272863,"Berkeley, California",37.8708393,-122.272863,original,Fife1943_reprint,Austin E. Fife,Wild Child
FortWorthDailyGazette1887,"""Two Indian Ghosts. A Lost Maiden, and a Chief Who Leaped from a Cliff""",Fort Worth (TX) Daily Gazette,1887-02-15,"Forth Worth, Texas",32.7369895,-97.4629893,"Los Angeles, California",34.0536909,-118.242766,truncated,TheTimes1887_reprint,,
GFM1881,"""An Earthly Paradise. A Stranger's View of Santa Barbara, and Her Surroundings""",Santa Barbara (CA) Daily Press,1881-04-13,"Santa Barbara, California",34.4221319,-119.702667,,,,,,G. F. M.,
GalenaWeeklyRepublican1921,"""Alone For Eighteen Years. Indian Woman, Abandoned on Desert Island, Finally Found by Party of Otter Hunters""",Galena (KS) Weekly Republican,1921-07-01,"Galena, Kansas",37.0741519,-94.6390414,"Corsicana, Texas",32.0938236,-96.464675,direct,CorsicanaDailySun1921_reprint,,Discovery; Wonder; Girl Crusoe; Wild Child; Jump Overboard
GalvestonDailyNews1885,"""A Feminine Crusoe. The Story of 'The Lost Woman of San Nicolas'--Eighteen Years on a Dessert Island--How She Lived and Dressed""",Galveston (TX) Daily News,1885-06-07,"Galveston, Texas",29.3872254,-94.992736,"Rochester, New York",43.157285,-77.615214,truncated,Witter1885_DAC_reprint,[Fred Spalding Witter],Origins; Discovery; Noble Savage; Wonder; Indian Queen
GalvestonDailyNews1887,"""An Indian Ghost""",Galveston (TX) Daily News,1887-02-27,"Galveston, Texas",29.3872254,-94.992736,"Los Angeles, California",34.0536909,-118.242766,direct,TheTimes1887_reprint,,
Gassaway1905,"""Sea Otter Shooting. A California Coast Sport That is Full of Excitement and Silence""",New York Field and Stream,1905-06-01,"New York, New York",40.7127281,-74.0060152,"New York, New York",40.7127281,-74.0060152,original,Gassaway1905_reprint,Frank Gassaway,Wonder; Noble Savage; Girl Crusoe; Wild Child; Discovery
Gassaway1905_ACFP,"""Story of a Woman Crusoe. Unlike Defoe's Hero, Her End Is Pathetic In the Extreme""",Adams County (IA) Free Press,1905-08-12,"Corning, Iowa",40.9901625,-94.7347831,"New York, New York",40.7127281,-74.0060152,truncated,Gassaway1905_reprint,[Frank Gassaway],Girl Crusoe; Noble Savage; Wild Child
Gassaway1905_BA,"""Story of a Woman Crusoe. Unlike Defoe's Hero, Her End Is Pathetic in the Extreme""",Baltimore (MD) American,1905-07-13,"Baltimore, Maryland",39.2908816,-76.610759,"New York, New York",40.7127281,-74.0060152,truncated,Gassaway1905_reprint,[Frank Gassaway],Wonder; Noble Savage; Girl Crusoe; Wild Child
Gassaway1905_BDE,"""A Woman Crusoe""",Brooklyn (NY) Daily Eagle,1905-06-08,"Brooklyn, New York",40.6526006,-73.9497211,"New York, New York",40.7127281,-74.0060152,truncated,Gassaway1905_reprint,[Frank Gassaway],Wonder; Noble Savage; Girl Crusoe; Wild Child
Gassaway1905_BDH,"""A Woman Crusoe""",Brownsville (TX) Daily Herald,1905-06-06,"Brownsville, Texas",25.9024289,-97.4981698,"New York, New York",40.7127281,-74.0060152,truncated,Gassaway1905_reprint,Frank Gassaway,Girl Crusoe; Noble Savage; Wild Child
Gassaway1905_DCJ,"""A Woman Crusoe""",Salem (OR) Daily Capital Journal,1905-07-28,"Salem, Oregon",44.9391565,-123.033121,"New York, New York",40.7127281,-74.0060152,truncated,Gassaway1905_reprint,[Frank Gassaway],Wonder; Girl Crusoe; Noble Savage; Wild Child
Gassaway1905_KCS,"""Woman Crusoe in the Channel Islands""",Kansas City (MO) Star,1905-06-21,"Kansas City, Missouri",39.100105,-94.5781416,"New York, New York",40.7127281,-74.0060152,truncated,Gassaway1905_reprint,[Frank Gassaway],Wonder; Noble Savage; Girl Crusoe; Wild Child
Gassaway1905_NA,"""Story of a Woman Crusoe""",Nebraska Advertiser,1905-09-01,"Nemaha, Nebraska",40.3837713,-95.8518344,"New York, New York",40.7127281,-74.0060152,truncated,Gassaway1905_reprint,[Frank Gassaway],Wonder; Girl Crusoe; Noble Savage; Wild Child
Gassaway1905_TCR,"""A Woman Crusoe""",Chatham (NC) Record,1905-11-02,"Pittsboro, North Carolina",35.7201229,-79.1771539,"New York, New York",40.7127281,-74.0060152,truncated,Gassaway1905_reprint,[Frank Gassaway],Wonder; Noble Savage; Girl Crusoe; Wild Child
Gassaway1905_TFWS,"""Story of a Woman Crusoe""",Fort Wayne (IN) Sentinel,1905-06-24,"Fort Wayne, Indiana",41.0799898,-85.1386015,"New York, New York",40.7127281,-74.0060152,truncated,Gassaway1905_reprint,[Frank Gassaway],Wonder; Noble Savage; Girl Crusoe; Wild Child
Gassaway1905_TID,"""A Woman Crusoe""",Indiana (PA) Democrat,1905-09-20,"Indiana, Pennsylvania",40.6424116,-79.1262839,"New York, New York",40.7127281,-74.0060152,truncated,Gassaway1905_reprint,[Frank Gassaway],Wonder; Noble Savage; Girl Crusoe; Wild Child
Gassaway1905_TSLR,"""Woman Crusoe Dies Insane on Island. Marooned Seventeen Years, Her End Is Unlike That of the Hero of Defoe's Novel""",St. Louis Republic,1905-07-16,"St. Louis, Missouri",38.6254063,-90.190009,"New York, New York",40.7127281,-74.0060152,truncated,Gassaway1905_reprint,[Frank Gassaway],Wonder; Noble Savage; Girl Crusoe; Wild Child
Gassaway1905_TSLT,"""Story of a Woman Crusoe""",Salt Lake Tribune,1905-07-23,"Salt Lake City, Utah",40.7596198,-111.886797,"New York, New York",40.7127281,-74.0060152,truncated,Gassaway1905_reprint,[Frank Gassaway],Wonder; Noble Savage; Girl Crusoe; Wild Child
Gassaway1905_TSWM,"""Story of a Woman Crusoe. Unlike Defoe's hero, Her End Is Pathetic in the Extreme""",Wilmington (NC) Semi-Weekly Messenger,1905-07-14,"Wilmington, North Carolina",34.2352853,-77.9487284,"New York, New York",40.7127281,-74.0060152,truncated,Gassaway1905_reprint,[Frank Gassaway],Wonder; Noble Savage; Girl Crusoe; Wild Child
Gassaway1905_TTDC,"""Woman Crusoe Dies Insane""",Topeka (KS) Daily Capital,1905-07-23,"Topeka, Kansas",39.049011,-95.677556,"New York, New York",40.7127281,-74.0060152,truncated,Gassaway1905_reprint,[Frank Gassaway],Wonder; Noble Savage; Girl Crusoe; Wild Child
Gassaway1905_TTT,"""Story of a Woman Crusoe""",Alexandria (IN) Times-Tribune,1905-08-07,"Alexandria, Indiana",40.2635468,-85.6744815,"New York, New York",40.7127281,-74.0060152,truncated,Gassaway1905_reprint,[Frank Gassaway],Wonder; Noble Savage; Girl Crusoe; Wild Child
Geiger1970,,Juana Maria: The Lone Woman of San Nicholas Island,1970-01-01,"Santa Barbara, California",34.4221319,-119.702667,,,,,,Maynard Geiger,Wonder; Discovery
Geiger2008,"""The Story of Juana María""",God's Acre at Mission Santa Barbara: The History of the Mission Cemetery and Its Famous Dead,1958-01-01,"Santa Barbara, California",34.4221319,-119.702667,,,,,,[Maynard Geiger],Noble Savage
GenevaDailyTimes1921,"""Alone for Eighteen Years. Indian Woman, Abandoned on Desert Island, Finally Found by Party of Otter Hunters""",Geneva (NY) Daily Times,1921-07-26,"Geneva, New York",42.8690271,-76.9786122,"Corsicana, Texas",32.0938236,-96.464675,direct,CorsicanaDailySun1921_reprint,,Discovery; Wonder; Girl Crusoe; Wild Child; Jump Overboard
Gibbons1893,"""The Wild Woman of San Nicolas Island""",Californian Illustrated Magazine,1893-10-01,"San Francisco, California",37.7879363,-122.4075201,"San Francisco, California",37.7879363,-122.4075201,original,Gibbons1893_reprint,James M. Gibbons,Noble Savage; Indians as Savage; Signs Easily Interpreted; Discovery; Wild Child; Vanishing Indians; Wonder
Gleason1950,"""San Nicolas""","Islands of California: Their History, Romance and Physical Characteristics",1950-01-01,"Los Angeles, California",34.0536909,-118.242766,,,,,,Duncan Gleason,Noble Savage; Indians as Savage; Jump Overboard; Discovery; Signs Easily Interpreted; Vanishing Indians
Goliah1853_DPT,"""A Female Robinson Crusoe""",San Francisco Daily Placer Times and Transcript,1853-09-23,"San Francisco, California",37.7879363,-122.4075201,"San Francisco, California",37.7879363,-122.4075201,original,Goliah1853_DPT_reprint,Goliah,Girl Crusoe; Noble Savage; Anti-Russian Sentiment; Indian Queen; Signs Easily Interpreted; Discovery; Wonder
Goliah1853_NYDT,"""A Female Robinson Crusoe""",New-York Daily Times,1853-10-28,"New York, New York",40.7127281,-74.0060152,"San Francisco, California",37.7879363,-122.4075201,direct,Goliah1853_DPT_reprint,Goliah,Girl Crusoe; Noble Savage; Anti-Russian Sentiment; Indian Queen; Signs Easily Interpreted; Discovery; Wonder
Grant1966,"""Appendix A: San Nicolás Island""",The Rock Paintings of the Chumash: A Study of California Indian Culture,1966-01-23,"Berkeley, California",37.8708393,-122.272863,,,,,,Campbell Grant,Girl Crusoe; Noble Savage
GreatSouthernHerald1914,"""The Island of Mystery""",Katanning (AUS) Great Southern Herald,1914-11-11,"Katanning, Western Australia, Australia",-33.624299,117.7042806,"New York, New York",40.7127281,-74.0060152,truncated,NewYorkHerald1896_reprint,,Origins; Indians as Savage; Vanishing Indians; Wonder
GreenburghRegister1893_Aug11,No title,Greenburgh (NY) Register,1893-08-11,"Dobbs' Ferry, New York",41.0145418,-73.872635,"Boston, Massachusetts",42.3588336,-71.0578303,paraphrase,Roberts1886_reprint,,Girl Crusoe
GreenburghRegister1893_Aug25,"""A Female Crusoe""",Greenburgh (NY) Register,1893-08-25,"Dobbs' Ferry, New York",41.0145418,-73.872635,"Boston, Massachusetts",42.3588336,-71.0578303,truncated,Roberts1886_reprint,[Edwards Roberts],Discovery; Indian Queen; Wild Child
Hall1900,"""The Sad Story of a Vanquished Race: Characteristics of the People Who Once Inhabited the Nearby Islands""",Daily Los Angeles Herald,1900-08-12,"Los Angeles, California",34.0536909,-118.242766,,,,,,Percy W. Hall,Vanishing Indians; Origins; Wonder; Noble Savage; Anti-Russian Sentiment; Indians as Savage
HanchettFife1944,"""The Lost Woman of San Nicolás""",California Folklore Quarterly,1944-04-15,"Berkeley, California",37.8708393,-122.272863,"Berkeley, California",37.8708393,-122.272863,paraphrase,Fife1943_reprint,"L. L. Hanchett, Lennox Tierney, and Austin E. Fife",Wild Child; Anti-Russian Sentiment; Vanishing Indians; Signs Easily Interpreted
Hardacre1879,"""Historical Account of the California Female Robinson Crusoe""",Manuscript,,,,,,,,,,Emma C. Hardacre,
Hardacre1880_SM,"""Eighteen Years Alone: A Tale of the Pacific""",Scribner's Monthly,1880-05-01,"New York, New York",40.7127281,-74.0060152,"New York, New York",40.7127281,-74.0060152,original,Hardacre1880_SM_reprint,Emma C. Hardacre,Girl Crusoe; Noble Savage; Indians as Savage; Vanishing Indians; Indian Queen; Wonder; Jump Overboard; No Boat Available; Discovery; Signs Easily Interpreted
Hardacre1880_TBC,"""Eighteen Years Alone: A Tale of the Pacific""",Brookfield (NY) Courier,1880-09-01,"Brookfield, New York",42.8128488,-75.3176677,"New York, New York",40.7127281,-74.0060152,direct,Hardacre1880_SM_reprint,[Emma C. Hardacre],Girl Crusoe; Noble Savage; Indians as Savage; Vanishing Indians; Indian Queen; Jump Overboard; No Boat Available; Wonder; Signs Easily Interpreted
Hardacre1880_TH,"""Eighteen Years Alone. A Tale of the Pacific""",St. Joseph (MI) Traveler-Herald,1880-09-18,"Saint Joseph, Michigan",41.9031963,-85.5356726,"New York, New York",40.7127281,-74.0060152,direct,Hardacre1880_SM_reprint,[Emma C. Hardacre],Girl Crusoe; Jump Overboard; Noble Savage; No Boat Available; Wonder; Discovery; Indian Queen; Signs Easily Interpreted; Vanishing Indians
Hardacre1880_THR,"""Eighteen Years Alone. A Tale of the Pacific""",Holton (KS) Recorder,1880-09-16,"Holton, Kansas",39.4652865,-95.7366657,"New York, New York",40.7127281,-74.0060152,truncated,Hardacre1880_SM_reprint,[Emma C. Hardacre],Girl Crusoe; Jump Overboard; Noble Savage; No Boat Available; Wonder; Discovery; Indian Queen; Signs Easily Interpreted; Vanishing Indians
Hardacre1880_TTDT,"""Eighteen Years Alone. A Tale of the Pacific""",Troy (NY) Daily Times,1880-09-11,"Troy, New York",42.7284117,-73.6917878,"New York, New York",40.7127281,-74.0060152,direct,Hardacre1880_SM_reprint,[Emma C. Hardacre],Girl Crusoe; Noble Savage; Indians as Savage; Vanishing Indians; Indian Queen; Wonder; Jump Overboard; No Boat Available; Discovery; Signs Easily Interpreted
Hardacre1880_VP,"""Eighteen Years Alone. A Tale of the Pacific""",Vermont Phoenix,1880-09-10,"Brattleboro, Vermont",42.8507588,-72.5572913,"New York, New York",40.7127281,-74.0060152,direct,Hardacre1880_SM_reprint,Emma C. Hardacre,Girl Crusoe; Noble Savage; Indians as Savage; Vanishing Indians; Indian Queen; Wonder; Jump Overboard; No Boat Available; Discovery; Signs Easily Interpreted
Hardacre1880_WE,"""Eighteen Years Alone. A Tale of the Pacific""","Watkins (Watkins Glen, NY) Express",1880-09-02,"Watkins Glen, New York",42.3810555,-76.8705777,"New York, New York",40.7127281,-74.0060152,direct,Hardacre1880_SM_reprint,[Emma C. Hardacre],Girl Crusoe; Noble Savage; Indians as Savage; Vanishing Indians; Indian Queen; Wonder; Jump Overboard; No Boat Available; Discovery; Signs Easily Interpreted
Hardacre1881_ODH16(92),"""Eighteen Years Alone. A Tale of the Pacific""",Omaha (NE) Daily Herald,1881-01-25,"Omaha, Nebraska",41.2587459,-95.9383758,"New York, New York",40.7127281,-74.0060152,direct,Hardacre1880_SM_reprint,[Emma C. Hardacre],Girl Crusoe; Jump Overboard; Noble Savage; No Boat Available; Wonder; Discovery; Indian Queen; Signs Easily Interpreted; Vanishing Indians
Hardacre1881_ODH16(93),"""Eighteen Years Alone""",Omaha (NE) Daily Herald,1881-01-26,"Omaha, Nebraska",41.2587459,-95.9383758,"New York, New York",40.7127281,-74.0060152,direct,Hardacre1880_SM_reprint,[Emma C. Hardacre],Noble Savage; Vanishing Indians; Jump Overboard
Hardacre1950,,Eighteen Years Alone: A Tale of the Pacific,1950-01-01,"Santa Barbara, California",34.4221319,-119.702667,"New York, New York",40.7127281,-74.0060152,direct,Hardacre1880_SM_reprint,Emma C. Hardacre,Girl Crusoe; Noble Savage; Indians as Savage; Vanishing Indians; Indian Queen; Wonder; Jump Overboard; No Boat Available; Discovery; Signs Easily Interpreted
Harloe1948,"""Removal of the Indians from San Nicolas Island""","""The Life of Isaac J. Sparks"" (master's thesis, University of Southern California, 1948)",1948-06-01,"Los Angeles, California",34.0536909,-118.242766,,,,,,Leo M. Harloe,Wonder; Noble Savage; No Boat Available; Discovery; Indian Queen
Harrigan1998,"""The Lone Woman of San Nicolas Island""",California Territorial Quarterly,1998-01-01,"Paradise, California",39.7596061,-121.6219177,,,,,,John P. Harrigan,Noble Savage; Indians as Savage; Anti-Russian Sentiment; Jump Overboard; No Boat Available; Indian Queen; Wild Child; Signs Easily Interpreted
Harrington1928,"""Ownership by Capt. George C. Nidever"" in ""Exploration of the Burton Mound at Santa Barbara, California""",Forty-Fourth Annual Report of the Bureau of American Ethnology to the Secretary of the Smithsonian Institution (1926-1927),1928-01-01,"Washington, DC",38.8950982,-77.0363849,,,,,,John Peabody Harrington,
Hedger1961,"""O’Dell’s Early Life Aids ‘Dolphin’ Story""",El Cajon (CA) Valley News,1961-04-06,"El Cajon, California",32.7947731,-116.962526,,,,,,Jean Hedger,Jump Overboard
Heizer1960,"""A San Nicolas Island Twined Basketry Water Bottle""","Reports of the University of California Archaeological Survey, No. 50",1960-05-16,"Berkeley, California",37.8708393,-122.272863,,,,,,Robert F. Heizer,Vanishing Indians
HeraldAndTribune1885,"""A Feminine Crusoe. Eighteen Years on a Desert Island""",Jonesborough (TN) Herald and Tribune,1885-05-28,"Jonesborough, Tennessee",36.2944928,-82.4734089,"Rochester, New York",43.157285,-77.615214,truncated,Witter1885_DAC_reprint,[Fred Spalding Witter],Origins; Discovery; Indian Queen; Noble Savage; Wonder
Hillinger1958,"""San Nicolas Island""",The California Islands,1958-05-01,"Los Angeles, California",34.0536909,-118.242766,,,,,,Charles Hillinger,Vanishing Indians; Noble Savage; Jump Overboard; Indian Queen; Signs Easily Interpreted; Wild Child
Hillinger1998,"""Indian Woman Lives 18 Years Alone on Island""","Charles Hillinger's Channel Islands: Santa Catalina, Santa Cruz, Anacapa, San Miguel, San Nicolas, Santa Rosa, San Clemente, Santa Barbara",1998-01-01,"Santa Barbara, California",34.4221319,-119.702667,,,,,,Charles Hillinger,Vanishing Indians; Noble Savage; Jump Overboard; Discovery; Indian Queen; Signs Easily Interpreted
Hittell1898,"""Indian Domestic Relations and Modes of Life""",History of California,1898-01-01,"San Francisco, California",37.7879363,-122.4075201,,,,,,Theodore H. Hittell,Girl Crusoe; No Boat Available
Holder1892,"""A Four-in-Hand in Southern California""",Californian Illustrated Magazine,1891-10-01,"San Francisco, California",37.7879363,-122.4075201,,,,,,Charles Frederick Holder,
Holder1899,"""The Wind-Swept Isle of San Nicolas""",Scientific American,1899-10-07,"New York, New York",40.7127281,-74.0060152,"New York, New York",40.7127281,-74.0060152,original,Holder1899_reprint,Charles Frederick Holder,Wild Child; Jump Overboard; Indian Queen; Signs Easily Interpreted; Noble Savage; Wonder; Origins; Vanishing Indians
Holder1899_TOW,"""The Wind-Swept Island of San Nicolas""",Otago (NZL) Witness,1899-12-07,"Dunedin, South Island, New Zealand",,,"New York, New York",40.7127281,-74.0060152,truncated,Holder1899_reprint,Charles Frederick Holder,Wild Child; Jump Overboard; Indian Queen; Signs Easily Interpreted; Noble Savage; Wonder; Origins; Vanishing Indians
Holder1901,"""The Wind-Swept Island of San Nicolas, and San Clemente""","An Isle of Summer: Santa Catalina: Its History, Climate, Sports and Antiquities",1901-01-01,"Los Angeles, California",34.0536909,-118.242766,"New York, New York",40.7127281,-74.0060152,truncated,Holder1899_reprint,[Charles Frederick Holder],Wild Child; Jump Overboard; Indian Queen; Signs Easily Interpreted; Noble Savage; Wonder; Origins; Vanishing Indians
Holder1910,"""Juana Better Than Nothing—The Lost Woman of San Nicolás""",The Channel Islands of California,1910-05-21,"Chicago, Illinois",41.8755616,-87.6244212,,,,paraphrase,Terry1882_reprint,Charles Frederick Holder,Indians as Savage; Jump Overboard; Wild Child; Signs Easily Interpreted; Noble Savage; Vanishing Indians; Girl Crusoe; Wonder
HolmesCountyRepublican1857,"""Selected Tale. A California Crusoe. Narrative of a Woman Who Lived Eighteen Years Alone Upon the Island of San Nicolas""",Holmes County (OH) Republican,1857-05-07,"Millersburg, Ohio",40.5545071,-81.9179198,"San Francisco, California",37.7879363,-122.4075201,truncated,Russell1856_HCF_reprint,C. J. W. Russell,Indians as Savage; No Boat Available; Discovery; Indian Queen; Signs Easily Interpreted; Vanishing Indians; Noble Savage
Howorth1988-Cave,"""The Cave of the Whales""",Santa Barbara Magazine,1988-07-01,"Santa Barbara, California",34.4221319,-119.702667,,,,,,Peter C. Howorth,
Howorth1988-Magic,"""San Nicolas Island: The Elusive Source of the Chumash Magic Stones""",Santa Barbara Magazine,1988-07-01,"Santa Barbara, California",34.4221319,-119.702667,,,,,,Peter C. Howorth,Vanishing Indians; Wonder
Hudson1978_52(1),"""Some J. P. Harrington Notes on the 'Lone Woman' of San Nicolas""",Masterkey,1978-01-01,"Los Angeles, California",34.0536909,-118.242766,,,,,,Travis Hudson,Discovery; Girl Crusoe; Noble Savage
Hudson1978_52(4),"""An Additional Harrington Note on the 'Lone Woman' of San Nicolas""",Masterkey,1978-01-01,"Los Angeles, California",34.0536909,-118.242766,,,,,,Travis Hudson,Discovery
Hudson1980,"""Additional Harrington Notes on the 'Lone Woman,'""",Masterkey,1980-01-01,"Los Angeles, California",34.0536909,-118.242766,,,,,,Travis Hudson,Discovery; Vanishing Indians
HutchingsCaliforniaMagazine1857,"""The Indian Woman of San Nicholas""",Hutchings' California Magazine,1857-02-01,"San Francisco, California",37.7879363,-122.4075201,"San Francisco, California",37.7879363,-122.4075201,paraphrase,Russell1856_HCF_reprint,,Signs Easily Interpreted; Discovery; Wild Child; Indians as Savage
IllustratedAmerican1892,"""The Isle of Skulls""",Illustrated American,1892-04-09,"New York, New York",40.7127281,-74.0060152,"San Francisco, California",37.7879363,-122.4075201,paraphrase,SanFranciscoExaminer1892_reprint,,Discovery; Wonder; Indian Queen; Vanishing Indians; Origins
Johnston1962,"""The Islands: Spanish Exploration by Sea""","California's Gabrielino Indians, vol. 8",1962-01-01,"Los Angeles, California",34.0536909,-118.242766,,,,,,Bernice Eastman Johnston,Noble Savage; Jump Overboard; Girl Crusoe; Anti-Russian Sentiment; Vanishing Indians
Julian1901_TBH,"""Stories of Riches. They Come from All Parts of Our Wonderful Country. New Deposits of Precious Metals and Minerals Discovered in the Far West—the Wonders of San Nicolas""",Beaver (OK) Herald,1901-12-19,"Beaver, Oklahoma",36.7621116,-100.4904955,"Parsons, Kansas",37.3407838,-95.2596295,direct,Julian1901_TS_reprint,Edward Julian,Indians as Savage; Wonder; Vanishing Indians; Indian Queen
Julian1901_TS,"""Stories of Riches. They Came from All Parts of Our Wonderful Country. New Deposits of Precious Metals and Minerals Discovered in the Far West—The Wonders of San Nicolas""",Parsons (KS) Sun,1901-11-21,"Parsons, Kansas",37.3407838,-95.2596295,"Parsons, Kansas",37.3407838,-95.2596295,original,Julian1901_TS_reprint,Edward Julian,Indians as Savage; Wonder; Vanishing Indians; Indian Queen
Kelp1889,"""Archaeological. Relics of the Oriental Races of Catalina. Interesting Discoveries under the Hotel Metropole—Stone Implements, Earrings, Beads, Fishhooks, Mortars, Pestles, Arts of the Aborigines, Etc""",Los Angeles Times,1889-08-25,"Los Angeles, California",34.0536909,-118.242766,,,,,,Kelp,Vanishing Indians; Noble Savage
King2013,"""Animals in Sea History: Sea Otter""",Sea History Magazine,2013-12-01,"Peekskill, New York",41.289811,-73.9204922,,,,,,Richard King,
Kinsell1891,"""The Santa Barbara Islands""",Overland Monthly,1891-12-01,"San Francisco, California",37.7879363,-122.4075201,,,,,,Martinette Kinsell,Wonder; Noble Savage; Vanishing Indians; Indians as Savage
Kroeber1907,"""Santa Barbara Islands"" in",University of California Publications in American Archaeology and Ethnology: The Shoshonean Dialects of California,1907-01-01,"Berkeley, California",37.8708393,-122.272863,,,,,,Alfred L. Kroeber,Vanishing Indians
Kroeber1925,"""The San Nicoleño"" in ""Chapter 44""",Handbook of the Indians of California,1925-01-01,"Washington, DC",38.8950982,-77.0363849,,,,,,Alfred L. Kroeber,Vanishing Indians
LakeWakatipMail1892,"""The Isle of Skulls""",Queenstown (NZL) Lake Wakatip Mail,1892-10-28,"Queenstown, South Island, New Zealand",,,"San Francisco, California",37.7879363,-122.4075201,direct,SanFranciscoExaminer1892_reprint,,Discovery; Wonder; Indian Queen; Vanishing Indians; Origins
LipscombLimeLight1921,"""Alone for Eighteen Years. Indian Woman, Abandoned on Desert Island, Finally Found by Party of Otter Hunters""",Lipscomb (TX) Lime Light and Follett (TX) Times,1921-12-01,"Follett, Texas",36.4322585,-100.141177,"Corsicana, Texas",32.0938236,-96.464675,direct,CorsicanaDailySun1921_reprint,,Discovery; Wonder; Girl Crusoe; Wild Child; Jump Overboard
LongIslander1848,"""A Female Crusoe""","Long-Islander (Huntington, NY)",1848-01-21,"Huntington, New York",40.868154,-73.425676,"Boston, Massachusetts",42.3588336,-71.0578303,direct,TheBostonAtlas1847_reprint,,Lazy Indian; Noble Savage; Jump Overboard; Indian Queen; Girl Crusoe; Wild Child
LosAngelesHerald1891,"""A Ghastly Spot. San Nicolas Island Covered with Human Bones. Thousands of Skeletons Strewn on the Beach for a Distance of Five Miles. An Old Indian Graveyard""",Los Angeles Herald,1891-08-31,"Los Angeles, California",34.0536909,-118.242766,"Ventura, California",34.4458248,-119.0779359,direct,TheWeeklyFreePress1891_reprint,,Origins; Jump Overboard
LosAngelesHerald1898,"""Catalina Chatter. The Summer Season's Premature End. Duyckinck's Thousand Fish""",Los Angeles Herald,1898-09-20,"Los Angeles, California",34.0536909,-118.242766,,,,,,,
LosAngelesTimes1898,"""Santa Catalina Island. Money Raised for an Addition to the Church—Good Goat Hunt""",Los Angeles Times,1898-09-18,"Los Angeles, California",34.0536909,-118.242766,,,,,,,
LosAngelesTimes1928,"""Story of Lost Woman Retold. Legend of San Nicolas Island Revived in Ceremony. Plaque Placed in Grounds of Santa Barbara Mission. Church and Laity Combine in Paying Late Tribute""",Los Angeles Times,1928-02-28,"Los Angeles, California",34.0536909,-118.242766,,,,,,,Noble Savage; Jump Overboard; Signs Easily Interpreted
LosAngelesTimes1929,"""Fish-Hook Has Sad History: Crude Instrument Loaned to Santa Barbara Museum for Years Used by Lone Woman Crusoe""",Los Angeles Times,1929-12-28,"Los Angeles, California",34.0536909,-118.242766,,,,,,,Jump Overboard
LosAngelesTimes1951,"""Indians Once Lived on Channel Islands: Hundreds of Years Ago Southland Was Ancient Utopia of Peace""",Los Angeles Times,1951-07-09,"Los Angeles, California",34.0536909,-118.242766,"Los Angeles, California",34.0536909,-118.242766,original,LosAngelesTimes1951_reprint,,Girl Crusoe; Noble Savage; Vanishing Indians; Anti-Russian Sentiment; Jump Overboard; Signs Easily Interpreted; Wonder
Lovelace1961,"""Scott O'Dell: A Biographical Note""",Horn Book Magazine,1961-01-01,"Boston, Massachusetts",42.3588336,-71.0578303,,,,,,Maud Hart Lovelace,
LowellDailyCitizen1879,"""A Female Crusoe—A Strange Tale From the Pacific Ocean""",Lowell (MA) Daily Citizen and News,1879-03-21,"Lowell, Massachusetts",42.6414437,-71.3085329,"Winona, Minnesota",44.0500054,-91.6392294,paraphrase,Stuart1878_reprint,,Girl Crusoe; Jump Overboard; Discovery; Noble Savage; Indian Queen
LowellDailyCitizenAndNews1857,"""A California Crusoe""",Lowell (MA) Daily Citizen and News,1857-04-13,"Lowell, Massachusetts",42.6414437,-71.3085329,"San Francisco, California",37.7879363,-122.4075201,truncated,Russell1856_HCF_reprint,C. J. W. Russell,Indians as Savage; No Boat Available; Discovery; Indian Queen; Signs Easily Interpreted; Vanishing Indians; Noble Savage
Lyttle1908,"""Education as a Leading Factor in Human Life""",Barbourville (KY) Mountain Advocate,1908-10-16,"Barbourville, Kentucky",36.8664765,-83.8888138,,,,,,G. Brittain Lyttle,Vanishing Indians; No Boat Available
MEDudley1901,"""Twenty Years Alone. The True Story of the Woman of San Nicolas Island""",Los Angeles Times Magazine,1901-08-04,"Los Angeles, California",34.0536909,-118.242766,"Los Angeles, California",34.0536909,-118.242766,direct,FHDudley1901_reprint,M.E. Dudley,Noble Savage; Indians as Savage; No Boat Available; Discovery; Indian Queen; Signs Easily Interpreted
MEDudley1901_TCN_Nov8,"""The Woman of San Nicolas Island. A Strange Story of the Pacific Coast""",Canonsburg (PA) Notes,1901-11-08,"Canonsburg, Pennsylvania",40.2588173,-80.1867206,"Los Angeles, California",34.0536909,-118.242766,direct,FHDudley1901_reprint,[M. E. Dudley],Noble Savage; Indians as Savage; No Boat Available; Discovery; Indian Queen; Signs Easily Interpreted
MEDudley1901_TCN_Nov9,"""The Woman of San Nicolas Island. A Strange Story of the Pacific Coast""",Canonsburg (PA) Notes,1901-11-09,"Canonsburg, Pennsylvania",40.2588173,-80.1867206,"Los Angeles, California",34.0536909,-118.242766,direct,FHDudley1901_reprint,[M. E. Dudley],Noble Savage; Indians as Savage; No Boat Available; Discovery; Indian Queen; Signs Easily Interpreted
MEDudley1901_TEJ,"""Was A Hermit Twenty Years. Alone On San Nicolas Island. The Woman When Discovered had Formulated a Strange but Fluent Language""",Ottawa (CAN) Evening Journal,1901-09-21,"Ottawa, Ontario, Canada",45.4208777,-75.6901106,"Los Angeles, California",34.0536909,-118.242766,direct,FHDudley1901_reprint,[M. E. Dudley],Noble Savage; Indians as Savage; No Boat Available; Discovery; Indian Queen; Signs Easily Interpreted
MEDudley1901_TNR,"""The Woman of San Nicolas Island. A Strange Story of the Pacific Coast""",Littleton (NC) News Reporter,1901-11-22,"Littleton, North Carolina",36.4348946,-77.9119615,"Los Angeles, California",34.0536909,-118.242766,direct,FHDudley1901_reprint,[M. E. Dudley],Noble Savage; Indians as Savage; No Boat Available; Discovery; Indian Queen; Signs Easily Interpreted
MEDudley1901_TSC,"""The Woman of San Nicolas Island. A Strange Story of the Pacific Coast""",Washington (DC) Suburban Citizen,1901-11-02,"Washington, DC",38.8950982,-77.0363849,"Los Angeles, California",34.0536909,-118.242766,direct,FHDudley1901_reprint,[M. E. Dudley],Noble Savage; Indians as Savage; No Boat Available; Discovery; Indian Queen; Signs Easily Interpreted
MadisonCountyTimes1885,"""Crusoe in Petticoats. A Woman Who was Eighteen Years on a Desert Island""",Madison County (NY) Times,1885-06-26,"Chittenango, New York",43.0458574,-75.8692429,"Rochester, New York",43.157285,-77.615214,truncated,Witter1885_DAC_reprint,[Fred Spalding Witter],Origins; Discovery; Noble Savage; Wonder; Indian Queen
MaryboroughChronicle1897,"""The Islands of Mystery. Remains of a Giant Race""","Maryborouogh (AUS) Chronicle, Wide Bay and Burnett Advertiser",1897-03-25,"Maryborough, Queensland, Australia",-25.537583,152.7019182,"New York, New York",40.7127281,-74.0060152,truncated,NewYorkHerald1896_reprint,,Origins; Indians as Savage; Vanishing Indians; Wonder; Noble Savage
Mason1883,"""The Lost Woman""","The History of Santa Barbara County, California, with Illustrations and Biographical Sketches of Its Prominent Men and Pioneers",1883-01-01,"Oakland, California",37.8044557,-122.271356,,,,paraphrase,Terry1882_reprint,[Jesse D. Mason],Indians as Savage; Noble Savage; No Boat Available; Discovery; Indian Queen; Signs Easily Interpreted; Wonder
Mathis1899,"""The Lone Woman of San Nicolas""",Los Angeles Times Magazine,1899-01-08,"Los Angeles, California",34.0536909,-118.242766,"Ventura, California",34.4458248,-119.0779359,paraphrase,Bowers1892_reprint,S. J. Mathis,Vanishing Indians; Anti-Russian Sentiment; No Boat Available; Discovery; Indian Queen; Wild Child; Signs Easily Interpreted; Noble Savage; Origins; Wonder
McBride1992,"""The Lone Woman of San Nicolas Island""",Fedco Reporter,1992-10-01,"Los Angeles, California",34.0536909,-118.242766,,,,,,Woody McBride,Jump Overboard; Indian Queen
McCawley1996,"""Juana Maria: The Lone Woman of San Nicolas Island"" in ""Voices from the Past""",The First Angelinos: The Gabrielino Indians of Los Angeles,,"Banning, California",33.9255685,-116.875289,,,,,,William McCawley,Girl Crusoe; Indians as Savage; Jump Overboard; Vanishing Indians; No Boat Available; Discovery; Noble Savage; Indian Queen
McDougall1890,"""A Woman's Log of 1849: From the Diary of Mrs. John McDougall""",Overland Monthly,1890-09-01,"San Francisco, California",37.7879363,-122.4075201,,,,,,William H. McDougall,Wild Child
McGroarty1911,"""When California Began""",California: Its History and Romance,1911-08-08,"Los Angeles, California",34.0536909,-118.242766,,,,paraphrase,Terry1882_reprint,John S. McGroarty,Noble Savage; Girl Crusoe; Wild Child; Vanishing Indians
McGroarty1932,"""The Forgotten Woman of San Nicolas Island""",Los Angeles Times,1932-10-23,"Los Angeles, California",34.0536909,-118.242766,,,,,,John S. McGroarty,Jump Overboard
Meighan1954,"""The Nicoleño""",Pacific Discovery,1954-01-01,"San Francisco, California",37.7879363,-122.4075201,,,,,,Clement W. Meighan,Vanishing Indians; Girl Crusoe
MexicoWeeklyLedger1887,"""A Mountain Mystery""",Mexico (MO) Weekly Ledger,1887-02-17,"Mexico, Missouri",39.1697626,-91.8829484,"Los Angeles, California",34.0536909,-118.242766,direct,TheTimes1887_reprint,,
MillennialStar1892,"""The Isle of Skulls""",Latter-Day Saints' Millennial Star (Liverpool),1892-08-15,"Liverpool, England, United Kingdom",53.3933411,-2.9166389,"San Francisco, California",37.7879363,-122.4075201,direct,SanFranciscoExaminer1892_reprint,,Discovery; Wonder; Indian Queen; Vanishing Indians; Origins
Miller1891,"""Mrs. Robinson Crusoe, of California. De Foe's Hero Outdone by an Heroic Indian Woman of Cunning Intelligence. Twenty-five years alone. Joaquin Miller's Quaint Sketch of the Lonely Denizen of an Island Off the Western Coast""",New York Herald,1891-04-26,"New York, New York",40.7127281,-74.0060152,,,,,,Joaquin Miller,Noble Savage; Girl Crusoe; Wonder; Jump Overboard; Wild Child; Vanishing Indians
MorningOregonian1897,"""Islands of Skulls. In the Pacific Ocean That Are Veritable Golgothas. Not Far from the Pacific Coast, and a Scientific Party Is Now Exploring Them""",Morning Oregonian (Portland),1897-07-23,"Portland, Oregon",45.5202471,-122.674194,"New York, New York",40.7127281,-74.0060152,paraphrase,Eames1892_reprint,,Wonder; Vanishing Indians; Discovery; Indian Queen; Noble Savage
MorningTribune1896,"""The Channel Islands. An Expedition Now Making a Thorough Explanation of Them. The Mystery of the Group. Lost Woman of San Nicolas the Last of Her Race—Skeletons of Giants Whose History Is as Yet Unknown. The Golgotha in the Pacific""",Altoona (PA) Morning Tribune,1896-10-07,"Altoona, Pennsylvania",40.5193586,-78.3968299,"New York, New York",40.7127281,-74.0060152,paraphrase,Eames1892_reprint,,Vanishing Indians; Discovery; Wonder; Indian Queen; Noble Savage; Origins; Indians as Savage
MorningTribune1913,"""An Island Mystery""",Altoona (PA) Morning Tribune,1913-01-02,"Altoona, Pennsylvania",40.5193586,-78.3968299,"New York, New York",40.7127281,-74.0060152,paraphrase,Hardacre1880_SM_reprint,,Jump Overboard; No Boat Available; Discovery; Indian Queen; Noble Savage
MorningWorldHerald1896,"""San Nicolas' Last Woman. Feminine Robinson Crusoe Who Lived Alone More Than Seventeen Years. Deserted Island in the Pacific Long the Home of a Solitary Indian. History of the Removal of a Tribe and the Neglect of Its One Member""",Omaha (NE) Morning World-Herald,1896-11-22,"Omaha, Nebraska",41.2587459,-95.9383758,,,,,,,Girl Crusoe; Discovery; Indian Queen; Noble Savage
MountCarmelItem1921,"""Alone For Eighteen Years. Indian Woman, Abandoned on Desert Island, Finally Found by Party of Otter Hunters""",Mount Carmel (PA) Item,1921-07-07,"Mount Carmel, Pennsylvania",40.7968393,-76.4131097,"Corsicana, Texas",32.0938236,-96.464675,direct,CorsicanaDailySun1921_reprint,,Discovery; Wonder; Girl Crusoe; Wild Child; Jump Overboard
Murray1878,"""'The Indian Woman of San Nicolas': By George Nidever""",Manuscript 764,1878-11-04,,,,,,,,,E. F. Murray,No Boat Available; Noble Savage; Signs Easily Interpreted
NewBedfordMercury1847,"""A Female Crusoe""",New-Bedford (MA) Mercury,1847-01-15,"Bedford, Massachusetts",42.4917301,-71.2817947,"Boston, Massachusetts",42.3588336,-71.0578303,direct,TheBostonAtlas1847_reprint,,Lazy Indian; Noble Savage; Jump Overboard; Indian Queen; Girl Crusoe; Wild Child
NewOrleansDailyCrescent1857,"""A California Crusoe. Narrative of a Woman Who Lived Eighteen Years Alone on San Nicolas Island""",New Orleans (LA) Daily Crescent,1857-01-26,"New Orleans, Louisiana",29.9561422,-90.0733934,"San Francisco, California",37.7879363,-122.4075201,truncated,Russell1856_HCF_reprint,C. J. W. Russell,Indians as Savage; No Boat Available; Discovery; Indian Queen; Signs Easily Interpreted; Vanishing Indians; Noble Savage
NewYorkDailyTribune1847,"""A Female Crusoe""",New York Daily Tribune,1847-01-18,"New York, New York",40.7127281,-74.0060152,"Boston, Massachusetts",42.3588336,-71.0578303,direct,TheBostonAtlas1847_reprint,,Lazy Indian; Noble Savage; Jump Overboard; Indian Queen; Girl Crusoe; Wild Child
NewYorkDailyTribune1893,"""Personal""",New York Daily Tribune,1893-07-19,"New York, New York",40.7127281,-74.0060152,,,,,,,Girl Crusoe; Wild Child
NewYorkEveningExpress1847,"""A Female Crusoe""",New York Evening Express,1847-01-08,"New York, New York",40.7127281,-74.0060152,"Boston, Massachusetts",42.3588336,-71.0578303,direct,TheBostonAtlas1847_reprint,,Lazy Indian; Noble Savage; Jump Overboard; Indian Queen; Girl Crusoe; Wild Child
NewYorkHerald1879,"""A Female Crusoe. An Indian Woman Eighteen Years on San Nicolas Island—How She Lived, Was Rescued and Died""",New York Herald,1879-02-14,"New York, New York",40.7127281,-74.0060152,"Winona, Minnesota",44.0500054,-91.6392294,truncated,Stuart1878_reprint,[Absalom B. Stuart],Jump Overboard; No Boat Available; Discovery; Indian Queen; Noble Savage; Signs Easily Interpreted
NewYorkHerald1896,"""Isles of Mystery. Mementos of a Dead Past and an Extinct Race in the Pacific. The Channel Islands. Thoroughly Explored at Last by Professor Charles Frederick Holden. San Nicolas' Lone Woman. Remains That Tell of an Interesting Tribe of Aesthetic Tastes""",New York Herald,1896-11-22,"New York, New York",40.7127281,-74.0060152,"New York, New York",40.7127281,-74.0060152,original,NewYorkHerald1896_reprint,,Origins; Indians as Savage; Vanishing Indians; Wonder; Noble Savage
NewYorkRecorder1893,"""A Feminine Crusoe. She Lived Seventeen Years Alone On San Nicolas Island. Rescued to Die the Sooner. A Strange Story of ""Juana Maria Better-Than-Nothing's"" Adventures on a Desert Island""",New York Recorder,1893-10-08,"Mount Kisco, New York",41.2042616,-73.7270761,"San Francisco, California",37.7879363,-122.4075201,truncated,Gibbons1893_reprint,[James M. Gibbons],Indians as Savage; Noble Savage; Signs Easily Interpreted; Discovery; Wild Child; Vanishing Indians; Wonder
NewYorkTimes1879,No title,New York Times,1879-03-03,"New York, New York",40.7127281,-74.0060152,"Winona, Minnesota",44.0500054,-91.6392294,paraphrase,Stuart1878_reprint,,Girl Crusoe; Jump Overboard; Discovery; Wonder
NewYorkTimes1895,"""On an Isle of Skulls. Once the Home of a Vigorous Race of Indians. Filled with Scientific Treasures. The Last Survivor on the Channel Islands, Off the California Coast, Has Now Been Dead over Forty Years""",New York Times,1895-12-01,"New York, New York",40.7127281,-74.0060152,"New York, New York",40.7127281,-74.0060152,paraphrase,Eames1892_reprint,,Wonder; Vanishing Indians; Discovery; Indian Queen; Noble Savage
NewcastleMorningHerald1879,"""A Female Crusoe""",Newcastle (AUS) Morning Herald & Miners Advocate,1879-06-07,"Newcastle, New South Wales, Australia",-32.9192953,151.7795348,"Winona, Minnesota",44.0500054,-91.6392294,paraphrase,Stuart1878_reprint,,Noble Savage; Signs Easily Interpreted; Indian Queen
NewhampshireSentinel1885,,,,,,,,,,,,,Origins; Discovery; Noble Savage; Wonder; Indian Queen
NewsAndCitizen1885,"""A Female Crusoe. The Singular Story of the Lost Woman of San Nicolas. Found on an Island Where She had Remained for Sixteen Years""",Morrisville and Hyde Park (VT) News and Citizen,1885-06-25,"Morrisville, Vermont",44.5615499,-72.5982955,"Rochester, New York",43.157285,-77.615214,truncated,Witter1885_DAC_reprint,[Fred Spalding Witter],Discovery; Noble Savage; Wonder; Indian Queen
Nidever1878,The Life and Adventures of a Pioneer of California Since 1834,Manuscript C-D133,1878-01-01,,,,,,,,,George Nidever,No Boat Available; Indian Queen; Noble Savage; Signs Easily Interpreted
Norris1960,"""Desert San Nicolas and the Last Nicoleño""",Pacific Discovery,1960-01-01,"San Francisco, California",37.7879363,-122.4075201,,,,,,Robert M. Norris,Vanishing Indians; Indians as Savage; Jump Overboard; Indian Queen; Signs Easily Interpreted
NorthOtagoTimes1879,"""A Castaway""",North Otago (NZL) Times,1879-06-09,"Oamaru, North Otago, New Zealand",-45.0710962,170.9873457,"Winona, Minnesota",44.0500054,-91.6392294,paraphrase,Stuart1878_reprint,,Noble Savage; Signs Easily Interpreted; Indian Queen
NorthOtagoTimes1902,"""A Giant Race""",North Otago (NZL) Times,1902-04-26,"Oamaru, North Otago, New Zealand",-45.0710962,170.9873457,"New York, New York",40.7127281,-74.0060152,truncated,NewYorkHerald1896_reprint,,Origins; Indians as Savage; Vanishing Indians; Wonder; Noble Savage
ODell1957,"""The Lost Woman of San Nicholas""","Country of the Sun: Southern California, An Informal History and Guide",1957-01-01,"New York, New York",40.7127281,-74.0060152,,,,,,Scott O'Dell,Anti-Russian Sentiment; Jump Overboard; Discovery
ODell1961,"""Newbery Award Acceptance""",Horn Book Magazine,1961-01-01,"Boston, Massachusetts",42.3588336,-71.0578303,,,,,,Scott O'Dell,Noble Savage
ODell1968,"""David: An Adventure with Memory and Words""",Psychology Today,1968-01-01,"New York, New York",40.7127281,-74.0060152,,,,,,Scott O'Dell,
Oliver1993,,Lone Woman of Ghalas-hat,1993-01-01,"Tustin, California",33.7458511,-117.826166,,,,,,Rice D. Oliver,Anti-Russian Sentiment; Jump Overboard; No Boat Available; Vanishing Indians; Noble Savage
Oregonian1901,"""To Explore the Strange Island of San Nicolas: An Expedition from the University of California Will Visit the Grewsome Land That is Spread Over with Skulls and Thighbones of a Lost Race""",Sunday Oregonian,1901-10-20,"Portland, Oregon",45.5202471,-122.674194,"New York, New York",40.7127281,-74.0060152,paraphrase,Eames1892_reprint,[Henry G. Tinsley],Wonder; Vanishing Indians; Discovery; Indian Queen; Indians as Savage
OswegoTimesExpress1885,"""A Feminine Crusoe. How She Lived Eighteen Years on a Desert Island. The Story of the Lost Woman of San Nicolas—Her Ingenuity and Fertility of Invention—A Wonderful History""",Oswego (NY) Times-Express,1885-06-18,"Oswego, New York",43.4112973,-76.1279841,"Rochester, New York",43.157285,-77.615214,truncated,Witter1885_DAC_reprint,[Fred Spalding Witter],Origins; Discovery; Indian Queen; Noble Savage; Wonder
OxnardDailyCourier1928,"""D. A. R. Luncheon""",Oxnard (CA) Daily Courier,1928-02-21,"Oxnard, California",34.1976308,-119.180381,,,,,,,
Paul1897,"""A Female Robinson Crusoe. A Romance of Truth from the Santa Barbara Islands""",Los Angeles Herald,1897-02-21,"Los Angeles, California",34.0536909,-118.242766,"New York, New York",40.7127281,-74.0060152,paraphrase,Hardacre1880_SM_reprint,Oliver M. Paul,Noble Savage; Jump Overboard; No Boat Available; Discovery; Indian Queen; Signs Easily Interpreted; Vanishing Indians
Paul1911,"""Female Robinson Crusoe: A True Tale of the Santa Barbara Islands""",Overland Monthly,1911-07-15,"San Francisco, California",37.7879363,-122.4075201,"New York, New York",40.7127281,-74.0060152,paraphrase,Hardacre1880_SM_reprint,Oliver M. Paul,Noble Savage; Vanishing Indians; Jump Overboard; No Boat Available; Discovery; Signs Easily Interpreted; Indian Queen
Phelps1841,Logbook of the Alert,"entry for Saturday, May 29, 1841",1841-05-29,,,,,,,,,William Dane Phelps,Vanishing Indians; Anti-Russian Sentiment; Indians as Savage; Wild Child
Pioneer1988,"""The Forgotten Woman of San Nicolas.""",Pioneer,1988-11-01,"Moscow, Russia, USSR",,,,,,,,,Jump Overboard; Vanishing Indians
PlantersBanner1853,"""A Female Crusoe""",Franklin (LA) Planters' Banner,1853-11-17,"Franklin, Louisiana",32.1254252,-91.6778053,"Newburyport, Massachusetts",42.8116592,-70.8719271,truncated,TheDailyHerald1853_reprint,,Discovery; Jump Overboard; Wild Child; Noble Savage
PointMuguHandout,"""Legend of San Nicolas Island: The Abandoned Woman of San Nicolas""",,1980-01-01,"Point Mugu, California",34.0854138,-119.060992,,,,,,,Jump Overboard; Discovery; Signs Easily Interpreted; Vanishing Indians
ProceedingsOfTheCAoS1857,"""San Francisco, March 30, 1857""",Proceedings of the California Academy of Science,1857-03-30,"San Francisco, California",37.7879363,-122.4075201,,,,,,,
PublicLedger1847,"""A Female Crusoe""",Philadelphia Public Ledger,1847-01-16,"Philadelphia, Pennsylvania",39.9527237,-75.1635262,"Boston, Massachusetts",42.3588336,-71.0578303,direct,TheBostonAtlas1847_reprint,,Lazy Indian; Noble Savage; Jump Overboard; Indian Queen; Girl Crusoe; Wild Child
Rasmussen2001,"""L.A. Then and Now: Woman’s Lonely Saga Left a Mystery""",Los Angeles Times,2001-03-18,"Los Angeles, California",34.0536909,-118.242766,,,,,,Cecilia Rasmussen,Vanishing Indians; Noble Savage; Indians as Savage; Jump Overboard
Rawlins1881_Jul27,"""The Heroine of San Nicholas. A Woman's Life for Eighteen Years on a Desert Island. A Modern Fact More Marvellous Than the Time-Honored Fiction of Robinson Crusoe""",Santa Barbara (CA) Daily Press,1881-07-27,"Santa Barbara, California",34.4221319,-119.702667,"New York, New York",40.7127281,-74.0060152,paraphrase,Hardacre1880_SM_reprint,J. H. Rawlins,Jump Overboard; Noble Savage; Discovery; Indian Queen; Signs Easily Interpreted; Girl Crusoe
Rawlins1881_Nov17,"""The Heroine of San Nicholas. A Woman's Life for Eighteen Years on a Desert Island. A Modern Fact More Marvellous Than the Time-Honored Fiction of Robinson Crusoe""",Santa Barbara (CA) Daily Press,1881-11-17,"Santa Barbara, California",34.4221319,-119.702667,"New York, New York",40.7127281,-74.0060152,paraphrase,Hardacre1880_SM_reprint,J. H. Rawlins,Jump Overboard; Noble Savage; Discovery; Indian Queen; Signs Easily Interpreted; Girl Crusoe
ReadingTimes1885,"""A Feminine Crusoe. How She Lived Eighteen Years on a Desert Island. The Story of the Lost Woman of San Nicolas—Her Ingenuity and Fertility of Invention—A Wonderful History""",Reading (PA) Times,1885-08-01,"Reading, Pennsylvania",40.335345,-75.9279495,"Rochester, New York",43.157285,-77.615214,truncated,Witter1885_DAC_reprint,[Fred Spalding Witter],Origins; Discovery; Noble Savage; Wonder; Indian Queen
ReadingTimesAndDispatch1879,"""A Female Crusoe. On an Island in the Pacific. Wild Woman Found on the Isolated Island of San Nicholas Seventy Miles from the California Coast""",Reading (PA) Times and Dispatch,1879-03-03,"Reading, Pennsylvania",40.335345,-75.9279495,"Winona, Minnesota",44.0500054,-91.6392294,paraphrase,Stuart1878_reprint,,Jump Overboard; Discovery; Noble Savage; Indian Queen
ReichlenHeizer1964,"""The Scientific Expedition of Leon de Cessac to California, 1877-1879"" in","The Scientific Expedition of Leon de Cessac to California, 1877-1879 & A Bibliography of the Chumash and their Predecessors",1964-01-01,"Berkeley, California",37.8708393,-122.272863,,,,,,Henry Reichlen and Robert F. Heizer,Vanishing Indians; Noble Savage
Revoil1855,"""Madame Robinson""",Le Mousquetaire (Paris),1855-02-25,"Paris, Île-de-France, France",48.8534951,2.3483915,,,,,,Bénédict Henry Révoil,
Revoil1882_APST,"""Madame Robinson""",Au Pôle et sous les Tropiques,1882-01-01,"Limoges, Limousin, France",45.8354243,1.2644847,,,,,,Bénédict Henry Révoil,
Revoil1882_MA,"""L’Abandonnée""",Moeurs de l’Afrique,1882-01-01,"Limoges, Limousin, France",45.8354243,1.2644847,,,,,,Bénédict Henry Révoil,
Revoil1882_MAI,"""L’Abandonnée""",Moeurs Asiatiques de l’Inde,1882-01-01,"Limoges, Limousin, France",45.8354243,1.2644847,,,,,,Bénédict Henry Révoil,
Revoil1882_UCE,"""L’Abandonnée""",Une Caravane d’émigrants,1882-01-01,"Limoges, Limousin, France",45.8354243,1.2644847,,,,,,Bénédict Henry Révoil,
Revoil1884,"""Madame Robinson""","Voyage en Amérique les Chasseurs de Bisons, nouvelle edition revue",1884-01-01,"Limoges, Limousin, France",45.8354243,1.2644847,,,,,,Bénédict Henry Révoil,
Revoil1894,"""Madame Robinson""",Le Capitaine Mayne Reid. Les Chasseurs de Bisons,1894-01-01,"Paris, Île-de-France, France",48.8534951,2.3483915,,,,,,Bénédict Henry Révoil,
Reynolds1902,"""The Lost Woman of San Nicolas""",Los Angeles Sunday Herald Illustrated Magazine,1902-05-25,"Los Angeles, California",34.0536909,-118.242766,,,,,,James E. Reynolds,
Roberts1886,"""Along the Pacific Shore""",Santa Barbara and Around There,1886-01-01,"Boston, Massachusetts",42.3588336,-71.0578303,"Boston, Massachusetts",42.3588336,-71.0578303,original,Roberts1886_reprint,Edwards Roberts,Discovery; Indian Queen; Wild Child
Roberts1893,"""A Female Crusoe. Story of the Lone Woman of San Nicolas. She Returned for Her Child and Spent About Twenty Years on the Desolate Island""",Los Angeles Herald,1893-07-12,"Los Angeles, California",34.0536909,-118.242766,"Boston, Massachusetts",42.3588336,-71.0578303,truncated,Roberts1886_reprint,Edward Roberts,Girl Crusoe; Noble Savage; Discovery; Indian Queen; Wild Child
Roberts1947,,The Lone Woman of San Nicolas: A Tale of Mission Santa Barbara,1948-01-01,"Palo Alto, California",37.4443293,-122.1598465,,,,,,Helen M. Roberts,Anti-Russian Sentiment; Jump Overboard; Signs Easily Interpreted; Vanishing Indians
Robinson1891,"""Appendix""",Life in California: During a Residence of Several Years in that Territory,1891-01-01,"San Francisco, California",37.7879363,-122.4075201,,,,,,Alfred Robinson,Noble Savage; Anti-Russian Sentiment; Indians as Savage; Discovery; Vanishing Indians
Robinson2004-Adrift,"""Adrift in a Sea of Fiction""",Los Angeles Times,2004-06-15,"Los Angeles, California",34.0536909,-118.242766,,,,,,Joe Robinson,Jump Overboard
Robinson2004-Marooned,"""Marooned""",Los Angeles Times,2004-06-15,"Los Angeles, California",34.0536909,-118.242766,,,,,,Joe Robinson,Indians as Savage; Jump Overboard; No Boat Available; Wild Child; Vanishing Indians
RochesterDemocratAndChronicle1879,"""A Woman Cruso[e]. An Almost Incredible Tale of the Pacific. Eighteen Years on a Lone Island Off Southern California""",Rochester (NY) Democrat and Chronicle,1879-02-17,"Rochester, New York",43.157285,-77.615214,"Winona, Minnesota",44.0500054,-91.6392294,truncated,Stuart1878_reprint,Absalom B. Stuart,Girl Crusoe; Jump Overboard; No Boat Available; Discovery; Indian Queen; Noble Savage; Signs Easily Interpreted
RockyMountainNews1885,"""A Feminine Crusoe. Eighteen Years on a Desert Island—How She Lived and Dressed""","Rocky Mountain News (Denver, CO)",1885-05-22,"Denver, Colorado",39.7392364,-104.984862,"Rochester, New York",43.157285,-77.615214,truncated,Witter1885_DAC_reprint,[Fred Spalding Witter],Origins; Discovery; Noble Savage; Wonder; Indian Queen
Romer1959,"""The Last of the Canalinos""",Historical Society of Southern California Quarterly,1959-01-01,"Los Angeles, California",34.0536909,-118.242766,,,,,,Margaret Romer,Girl Crusoe; Noble Savage; Discovery; Vanishing Indians
Russell1856_EB3(42),"""A California Crusoe. Narrative of a Woman Who Lived Eighteen Years Alone, upon the Island of San Nicolas""",San Francisco Evening Bulletin,1856-11-25,"San Francisco, California",37.7879363,-122.4075201,"San Francisco, California",37.7879363,-122.4075201,truncated,Russell1856_HCF_reprint,,Indians as Savage; No Boat Available; Discovery; Indian Queen; Signs Easily Interpreted; Vanishing Indians; Noble Savage
Russell1856_HCF,"""Narrative of a Woman Who Was Eighteen Years Alone, Upon the Island of San Nicolas, Coast of California""",Hutchings' California Illustrated Magazine,1856-11-01,"San Francisco, California",37.7879363,-122.4075201,"San Francisco, California",37.7879363,-122.4075201,original,Russell1856_HCF_reprint,C. J. W. Russell,Girl Crusoe; Indians as Savage; No Boat Available; Discovery; Indian Queen; Signs Easily Interpreted; Vanishing Indians; Noble Savage
Russell1857_CC,"""A Female Crusoe""","Cayuga Chief (Fort Atkinson, WI)",1857-05-20,"Fort Atkinson, Wisconsin",42.9288944,-88.8370509,"San Francisco, California",37.7879363,-122.4075201,direct,Russell1856_HCF_reprint,C. J. W. Russell,Indians as Savage; No Boat Available; Discovery; Indian Queen; Signs Easily Interpreted; Vanishing Indians; Noble Savage
Russell1857_CDT,"""A California Crusoe. Narrative of a Woman Who Lived 18 Years Alone on San Nicolas Island""",Chicago Daily Tribune,1857-04-16,"Chicago, Illinois",41.8755616,-87.6244212,"San Francisco, California",37.7879363,-122.4075201,direct,Russell1856_HCF_reprint,C. J. W. Russell,Indians as Savage; No Boat Available; Discovery; Indian Queen; Signs Easily Interpreted; Vanishing Indians; Noble Savage
Rust1897,,"Catalogue of Pre-historic Relics from San Nicolas Island, California",1897-01-01,"South Pasadena, California",34.1133062,-118.1478291,,,,paraphrase,Terry1882_reprint,Horatio N. Rust,Indians as Savage; Anti-Russian Sentiment; Discovery; Lazy Indian; Noble Savage; Vanishing Indians
SacramentoDailyRecordUnion1881,"""Pacific Coast Items""",Sacramento Daily Record-Union,1881-02-19,"Sacramento, California",38.5810606,-121.493895,,,,,,,
SacramentoDailyUnion1853_Nov1,"""The Wild Woman of California""",Sacramento Daily Union,1853-11-01,"Sacramento, California",38.5810606,-121.493895,"San Francisco, California",37.7879363,-122.4075201,truncated,Santiago1853_reprint,,Wild Child; Signs Easily Interpreted; Indians as Savage; Noble Savage; Vanishing Indians
SacramentoDailyUnion1853_Nov15,"""Wild Woman of San Nicholas""",Sacramento Daily Union,1853-11-15,"Sacramento, California",38.5810606,-121.493895,"San Francisco, California",37.7879363,-122.4075201,truncated,DailyAltaCalifornia1853_reprint,,
SacramentoDailyUnion1856,"""Further Particulars of the California Crusoe""",Sacramento Daily Union,1856-12-29,"Sacramento, California",38.5810606,-121.493895,"San Francisco, California",37.7879363,-122.4075201,paraphrase,Russell1856_HCF_reprint,Juan José Warner,Girl Crusoe; Anti-Russian Sentiment; Indians as Savage; Noble Savage; Vanishing Indians; Indian Queen; Wild Child; Signs Easily Interpreted
SalemWeeklyReview1879,"""A Female Robinson Crusoe""",Salem (NY) Weekly Review,1879-03-01,"Salem, New York",43.1714488,-73.3301547,"Salem, New York",43.1714488,-73.3301547,original,SalemWeeklyReview1879_reprint,,
SaltLakeEveningDemocrat1885,"""A Feminine Crusoe. How She Lived Eighteen Years on a Desert Island""",Salt Lake Evening Democrat,1885-07-14,"Salt Lake City, Utah",40.7596198,-111.886797,"Rochester, New York",43.157285,-77.615214,truncated,Witter1885_DAC_reprint,[Fred Spalding Witter],Origins; Discovery; Indian Queen; Noble Savage; Wonder
SanDiegoUnion1896,"""California Islands. Remarkable Finds Made on San Nicolas and Others. The Lone Woman of San Nicolas and Her Mysterious Race—Occupation by Peculiar Races of Indians—Monuments of Bones—Interesting Finds""",San Diego Union,1896-10-18,"San Diego, California",32.7174202,-117.162772,"New York, New York",40.7127281,-74.0060152,paraphrase,Eames1892_reprint,,Vanishing Indians; Discovery; Wonder; Indian Queen; Noble Savage; Origins; Indians as Savage
SanFranciscoChronicle1879,"""Left Alone on a Dreary Desert Island for Eighteen Years. California's Feminine Crusoe. An Indian Mother's Devotion—the Solitary Inhabitant of the Island of San Nicholas""",San Francisco Sunday Chronicle,1879-02-02,"San Francisco, California",37.7879363,-122.4075201,"Winona, Minnesota",44.0500054,-91.6392294,paraphrase,Stuart1878_reprint,,Girl Crusoe; Jump Overboard; Discovery; Noble Savage; Indian Queen
SanFranciscoChronicle1889,"""The Channel Isles. California's Solitary Archipelago. Cabrillo's Unknown Grave. History and Description of the Santa Barbara Islands""",San Francisco Sunday Chronicle,1889-03-03,"San Francisco, California",37.7879363,-122.4075201,,,,,,,Noble Savage
SanFranciscoChronicle1893_Jul10,"""A Female Crusoe. Story of the Lost Woman of San Nicolas. She Returned for Her Child and Spent Twenty Years on the Island""",San Francisco Chronicle,1893-07-10,"San Francisco, California",37.7879363,-122.4075201,"Boston, Massachusetts",42.3588336,-71.0578303,truncated,Roberts1886_reprint,[Edwards Roberts],Girl Crusoe; Discovery; Indian Queen; Wild Child
SanFranciscoChronicle1893_Jul7,"""Peril on San Nicolas. A Tidal Wave and Heavy Earthquakes. The Old Harbor Filled with Sand. Electrical Storms Killed the Crawfish and Paralyzed the Kanakas""",San Francisco Chronicle,1893-07-07,"San Francisco, California",37.7879363,-122.4075201,"Boston, Massachusetts",42.3588336,-71.0578303,paraphrase,Roberts1886_reprint,,Wonder; Wild Child
SanFranciscoChronicle1893_Jul8,No title,San Francisco Chronicle,1893-07-08,"San Francisco, California",37.7879363,-122.4075201,"Boston, Massachusetts",42.3588336,-71.0578303,paraphrase,Roberts1886_reprint,,Girl Crusoe; Wild Child; Vanishing Indians
SanFranciscoChronicle1894,"""A Romance of the Sea. Relics of a Lost Tribe of Indians. The Cruise of the Schooner Alexander. Upturned Graves of a Once Mighty People on San Nicolas Island""",San Francisco Chronicle,1894-12-07,"San Francisco, California",37.7879363,-122.4075201,"San Francisco, California",37.7879363,-122.4075201,original,SanFranciscoChronicle1894_reprint,,Wonder; Vanishing Indians; Origins; Noble Savage
SanFranciscoDailyHerald1853,"""The Wild Woman of San Nicolas""",San Francisco Daily Herald,1853-11-13,"San Francisco, California",37.7879363,-122.4075201,"San Francisco, California",37.7879363,-122.4075201,paraphrase,Santiago1853_reprint,,Discovery; Noble Savage; Girl Crusoe; Vanishing Indians
SanFranciscoExaminer1892,"""Heard About Town""",San Francisco Examiner,1892-02-27,"San Francisco, California",37.7879363,-122.4075201,"San Francisco, California",37.7879363,-122.4075201,original,SanFranciscoExaminer1892_reprint,,Discovery; Wonder; Indian Queen; Vanishing Indians; Origins
SantaBarbaraGazette1856,"""The Lone Indian of San Nicolas""",Santa Barbara (CA) Gazette,1856-12-11,"Santa Barbara, California",34.4221319,-119.702667,"San Francisco, California",37.7879363,-122.4075201,paraphrase,Russell1856_HCF_reprint,[C. J. W. Russell],Signs Easily Interpreted; Wild Child; Discovery; Indians as Savage
SantaBarbaraNewsPress1939,"""'Wild' Woman's Homesite Is Located""",Santa Barbara (CA) News-Press,1939-08-22,"Santa Barbara, California",34.4221319,-119.702667,,,,,,,Girl Crusoe; Vanishing Indians; Wild Child; Origins
SantaBarbaraNewsPress1944,"""'Woman of San Nicholas' Not Myth: New Proof Found at Old Mission""",Santa Barbara (CA) News-Press,1944-02-20,"Santa Barbara, California",34.4221319,-119.702667,,,,,,,No Boat Available
SantaBarbaraNewsPress1962,,Santa Barbara (CA) News-Press,1962-08-17,"Santa Barbara, California",34.4221319,-119.702667,,,,,,,
Santiago1853,"""From Santa Barbara. Arrivals at Santa Barbara____Improvements in Trade____The Natives and their Habits____More of the Wild Woman____Captain Burke's Return____Squatter Troubles Becoming Settled____Quartz Gold and Copper Ore____Accident____The Weather____Mission of Santa Barbara""",San Francisco Daily Herald,1853-10-11,"San Francisco, California",37.7879363,-122.4075201,"San Francisco, California",37.7879363,-122.4075201,original,Santiago1853_reprint,Santiago,Wild Child; Signs Easily Interpreted; Indians as Savage; Noble Savage; Vanishing Indians
Sauers2013_AirTime,"""Lost Indian Cave Found on San Nicolas Island""",Air Time,2013-06-01,"Point Mugu, California",34.0854138,-119.060992,,,,,,Patricia Sauers,
Sauers2013_Currents,"""Point Mugu’s Lead Archaeologist Makes a Significant Find: Cave May Be the Lone Woman's Cave of San Nicolas Island""",Currents,2013-09-01,"Silverdale, Washington",47.6594091,-122.6766317,,,,,,Patricia Sauers,
Schumacher1875,"""Some Remains of a Former People""",Overland Monthly,1875-10-01,"San Francisco, California",37.7879363,-122.4075201,,,,,,Paul Schumacher,
Schumacher1875_AFA,"""Die Anfertigung der Angelhaken aus Muschelschalen bei deǹ früheren Bewohnern der Inseln im Santa Barbara Canal"" [The Manufacture of Shell Fish-hooks by the Early Inhabitants of the Santa Barbara Channel Islands]",Archiv für Anthropologie,1875-01-01,"Braunschweig [Brunswick], Lower Saxony, Germany",52.2452628,10.5818939,,,,,,Paul Schumacher,
Schumacher1877,"""Art. III.—Researches in the Kjökkenmöddings and Graves of a Former Population of the Santa Barbara Islands and the Adjacent Mainland""",Bulletin of the United States Geological Survey of the Territories,1877-01-01,"Washington, DC",38.8950982,-77.0363849,,,,,,Paul Schumacher,Origins
Schwartz1989,"""The Lone Woman of San Nicolas Island""",Manuscript,1989-01-01,,,,,,,,,Steve J. Schwartz,Jump Overboard; No Boat Available; Vanishing Indians
SchwartzMartz1992,"""An Overview of the Archaeology of San Nicolas Island, Southern California""",Pacific Coast Archaeological Society Quarterly,1992-09-01,"Costa Mesa, California",33.6633386,-117.903317,,,,,,Steven J. Schwartz and Patricia Martz,Vanishing Indians; Discovery
SchwartzVellanoweth2013,"""Lone Woman's Cave Found on San Nicolas Island""",California Archaeology,2013-12-01,"Chico, California",39.7284945,-121.8374777,,,,,,Steven J. Schwartz and Rene L. Vellanoweth,Discovery
Sell1954,"""Tiny Skeleton Recalls 1835 Island Saga: Bones Believed Those of Mystery Hermit's Child""",Los Angeles Times,1954-07-05,"Los Angeles, California",34.0536909,-118.242766,,,,,,Ted Sell,Jump Overboard; Origins; Noble Savage; Anti-Russian Sentiment
Sheridan1925,"""The Lost Woman of San Nicolas""",Manuscript,1925-01-01,"Ventura, California",34.4458248,-119.0779359,"Ventura, California",34.4458248,-119.0779359,original,Sheridan1925_reprint,Edwin M. Sheridan,Indians as Savage; Noble Savage; No Boat Available; Discovery; Lazy Indian; Indian Queen; Signs Easily Interpreted; Wonder
Sheridan1927_21(33),"""The Lost Woman of San Nicolas""",Oxnard (CA) Daily Courier,1927-08-10,"Oxnard, California",34.1976308,-119.180381,"Ventura, California",34.4458248,-119.0779359,direct,Sheridan1925_reprint,Edwin M. Sheridan,Indians as Savage; Noble Savage; No Boat Available; Discovery
Sheridan1927_21(34),"""The Lost Woman of San Nicolas""",Oxnard (CA) Daily Courier,1927-08-11,"Oxnard, California",34.1976308,-119.180381,"Ventura, California",34.4458248,-119.0779359,direct,Sheridan1925_reprint,Edwin M. Sheridan,Discovery; Indian Queen; Noble Savage; Lazy Indian; Signs Easily Interpreted; Wonder
ShipwreckedMariner1879,"""A Female Crusoe""",Shipwrecked Mariner,1879-06-01,"London, England, United Kingdom",51.5074456,-0.1277653,"Winona, Minnesota",44.0500054,-91.6392294,paraphrase,Stuart1878_reprint,,Noble Savage; Signs Easily Interpreted; Indian Queen
SkaneatelesFreePress1921,"""Alone for Eighteen Years. Indian Woman, Abandoned on Desert Island, Finally Found by Party of Otter Hunters""",Skaneateles (NY) Free Press,1921-07-29,"Skaneateles, New York",42.947011,-76.4291017,"Corsicana, Texas",32.0938236,-96.464675,direct,CorsicanaDailySun1921_reprint,,Discovery; Wonder; Girl Crusoe; Wild Child; Jump Overboard
SpiritOfTheTimes1847,"""A Female Crusoe""",Batavia (NY) Spirit of the Times,1847-01-19,"Batavia, New York",42.9980144,-78.1875515,"Boston, Massachusetts",42.3588336,-71.0578303,direct,TheBostonAtlas1847_reprint,,Lazy Indian; Noble Savage; Jump Overboard; Indian Queen; Girl Crusoe; Wild Child
SpiritOfTheTimes1853,"""A Female Crusoe""",Ironton (OH) Spirit of the Times,1853-12-20,"Ironton, Ohio",38.5367471,-82.6829406,"Newburyport, Massachusetts",42.8116592,-70.8719271,truncated,TheDailyHerald1853_reprint,,Discovery; Jump Overboard
SpringfieldDailyRepublican1853,"""A Female Robinson Crusoe""",Springfield (MA) Daily Republican,1853-11-22,"Springfield, Massachusetts",42.1018764,-72.5886727,"San Francisco, California",37.7879363,-122.4075201,truncated,Goliah1853_DPT_reprint,[Goliah],Girl Crusoe; Noble Savage; Anti-Russian Sentiment; Indian Queen; Signs Easily Interpreted; Discovery; Wonder
StLawrencePlaindealer1879,"""A Feminine Crusoe. Alone on a Dreary Desert Island for Eighteen Years""",St. Lawrence (NY) Plaindealer,1879-02-27,"Canton, New York",44.5956163,-75.1690942,"Winona, Minnesota",44.0500054,-91.6392294,paraphrase,Stuart1878_reprint,,Girl Crusoe; Jump Overboard; Discovery; Noble Savage; Indian Queen
StLouisGlobeDemocrat1885,"""A Feminine Crusoe. Eighteen Years on a Desert Island—How She Lived and Dressed""",St. Louis (MO) Globe-Democrat,1885-05-19,"St. Louis, Missouri",38.6254063,-90.190009,"Rochester, New York",43.157285,-77.615214,truncated,Witter1885_DAC_reprint,[Fred Spalding Witter],Origins; Discovery; Noble Savage; Wonder; Indian Queen
StLouisPostDispatch1885,"""A Feminine Crusoe. Eighteen Years On a Desert Island—How She Lived and Dressed""",St. Louis Post-Dispatch,1885-05-23,"St. Louis, Missouri",38.6254063,-90.190009,"Rochester, New York",43.157285,-77.615214,truncated,Witter1885_DAC_reprint,[Fred Spalding Witter],Origins; Discovery; Noble Savage; Wonder; Indian Queen
StLouisRepublic1893,"""A Feminine Crusoe. She Lived Seventeen Years Alone on an Island. Rescued to Die the Sooner—A Strange Story 'Juana Maria Better-Than-Nothing's' Adventures on a Desert Island""",St. Louis Republic,1893-10-14,"St. Louis, Missouri",38.6254063,-90.190009,"San Francisco, California",37.7879363,-122.4075201,truncated,Gibbons1893_reprint,[James M. Gibbons],Girl Crusoe; Indians as Savage; Noble Savage; Signs Easily Interpreted; Discovery; Wild Child; Indian Queen; Vanishing Indians
SteubenFarmersAdvocate1879,"""A Female Crusoe""",Steuben (NY) Farmers' Advocate,1879-06-06,"Bath, New York",42.3370164,-77.3177577,"Winona, Minnesota",44.0500054,-91.6392294,truncated,Stuart1878_reprint,[Absalom B. Stuart],Girl Crusoe; Jump Overboard; Discovery
Stott1975,"""Narrative Technique and Meaning in Island of the Blue Dolphins""",Elementary English,1975-04-01,"Chicago, Illinois",41.8755616,-87.6244212,,,,,,Jon C. Stott,Noble Savage
Stott1992,"""Native American Narratives and the Children's Literature Curriculum""","Teaching Children's Literature: Issues, Pedagogy, Resources",1992-01-01,"New York, New York",40.7127281,-74.0060152,,,,,,Jon C. Stott,
Stuart1878,"""A Female Robinson Crusoe. A Wonderful Romance in Real Life—Eighteen Years Alone on the Island of San Nicholas, on the Coast of Southern California""",Winona (MN) Daily Republican,1878-12-30,"Winona, Minnesota",44.0500054,-91.6392294,"Winona, Minnesota",44.0500054,-91.6392294,original,Stuart1878_reprint,Absalom B. Stuart,Girl Crusoe; Jump Overboard; No Boat Available; Discovery; Indian Queen; Noble Savage; Signs Easily Interpreted
Stuart1879_Jan28,"""A Female Crusoe. The Lone Woman of San Nicolas Island. A Wonderful Romance in Real Life—Eighteen Years Alone on the Island of San Nicolas, on the Coast of Southern California""",Santa Barbara (CA) Daily Press,1879-01-28,"Santa Barbara, California",34.4221319,-119.702667,"Winona, Minnesota",44.0500054,-91.6392294,direct,Stuart1878_reprint,[Absalom B. Stuart],Girl Crusoe; Jump Overboard; No Boat Available; Discovery
Stuart1879_Jan29,"""A Female Crusoe. The Lone Woman of San Nicolas Island. A Wonderful Romance in Real Life—Eighteen Years Alone on the Island of San Nicolas, on the Coast of Southern California""",Santa Barbara (CA) Daily Press,1879-01-29,"Santa Barbara, California",34.4221319,-119.702667,"Winona, Minnesota",44.0500054,-91.6392294,direct,Stuart1878_reprint,Absalom B. Stuart,Discovery; Indian Queen; Noble Savage; Signs Easily Interpreted
Stuart1880,"""An Indian Woman Eighteen Years Alone on the Island of San Nicolas, off the Coast of Southern California. Physical Condition Good; Recollected Events, but Had Lost All Knowledge of the Computation of Time and the Dialect of her Tribe""",Sanitarian,1880-09-01,"New York, New York",40.7127281,-74.0060152,"Winona, Minnesota",44.0500054,-91.6392294,direct,Stuart1878_reprint,Absalom B. Stuart,Girl Crusoe; Jump Overboard; No Boat Available; Discovery; Indian Queen; Noble Savage; Signs Easily Interpreted; Vanishing Indians
Stuart1880_TCE,"""A Female Crusoe. An Indian Woman Who Lived Eighteen Years Alone on an Island in the Pacific""",Cincinnati Enquirer,1880-09-04,"Cincinnati, Ohio",39.1014537,-84.5124602,"Winona, Minnesota",44.0500054,-91.6392294,truncated,Stuart1878_reprint,[Absalom B. Stuart],Jump Overboard; No Boat Available; Discovery; Indian Queen; Noble Savage; Signs Easily Interpreted; Girl Crusoe; Vanishing Indians
SullivanRepublican1892,"""Covered with Skeletons. San Nicolas Island and Its Gruesome Story""",Laporte (PA) Sullivan Republican,1892-03-25,"Laporte, Pennsylvania",41.4239666,-76.494113,"San Francisco, California",37.7879363,-122.4075201,direct,SanFranciscoExaminer1892_reprint,,Discovery; Wonder; Indian Queen; Vanishing Indians; Origins
SundayGlobe1887,"""A Mountain Mystery. The Strange Sight Seen by Some Ventura Hunters""",St. Paul (MN) Sunday Globe,1887-02-27,"St. Paul, Minnesota",44.9497487,-93.0931028,"Los Angeles, California",34.0536909,-118.242766,direct,TheTimes1887_reprint,,
Taylor1860_12(11),"""Santa Barbara"" in ""California Notes. The Indianology of California. [Continued.] No. 7. Santa Ynez and the Santa Barbara County Indians""",California Farmer and Journal of Useful Sciences,1860-05-04,"San Francisco, California",37.7879363,-122.4075201,"San Francisco, California",37.7879363,-122.4075201,original,Taylor1860_12(11)_reprint,Alex S. Taylor,Noble Savage; Indians as Savage; Vanishing Indians
Taylor1860_13(16),"""California Notes. The Indianology of California. [Continued.] Miscellaneous""",California Farmer and Journal of Useful Sciences,1860-06-08,"San Francisco, California",37.7879363,-122.4075201,"San Francisco, California",37.7879363,-122.4075201,paraphrase,Russell1856_HCF_reprint,Alex S. Taylor,Wild Child; Indians as Savage; Wonder; Noble Savage; Vanishing Indians
TelleenLawton2013_Blog,"""The Lost Woman of San Nicolas Island""",Santa Barbara (CA) Seasons,2013-07-11,"Santa Barbara, California",34.4221319,-119.702667,,,,,,Karen Telleen-Lawton,
TelleenLawton2013_Mag,"""The Lone Woman of San Nicolas Island""",Santa Barbara (CA) Seasons,2013-07-01,"Santa Barbara, California",34.4221319,-119.702667,,,,,,Karen Telleen-Lawton,
Tenney1907,"""The Hermit of San Nicholas""",Pacific Monthly,1907-07-01,"Portland, Oregon",45.5202471,-122.674194,,,,,,W. A. Tenney,Indians as Savage; Jump Overboard; No Boat Available; Discovery; Indian Queen; Noble Savage; Signs Easily Interpreted; Vanishing Indians
Terry1882,"""Reminiscences of George Nidever and Charles Brown of the Early History of Santa Barbara and the Fining [Finding] of the Woman (Indian) of San Nicolas Island""",Manuscript 770,1882-03-16,,,,,,,original,Terry1882_reprint,James Terry,Indians as Savage; Signs Easily Interpreted; Wild Child; Noble Savage
ThamesAdvertiser1879,"""A Castaway""",Thames (NZL) Advertiser and Miners' News,1879-07-02,"Thames, North Island, New Zealand",,,"Winona, Minnesota",44.0500054,-91.6392294,paraphrase,Stuart1878_reprint,,Noble Savage; Signs Easily Interpreted; Indian Queen
ThamesAdvertiser1892,"""The Isle of Skulls""",Thames (NZL) Advertiser,1892-07-12,"Thames, North Island, New Zealand",,,"San Francisco, California",37.7879363,-122.4075201,direct,SanFranciscoExaminer1892_reprint,,Discovery; Wonder; Indian Queen; Vanishing Indians; Origins
TheAdamsSentinel1853,"""A Female Crusoe""",Adams (PA) Sentinel and General Advertiser,1853-11-07,"Gettysburg, Pennsylvania",39.8308973,-77.231012,"Newburyport, Massachusetts",42.8116592,-70.8719271,truncated,TheDailyHerald1853_reprint,,Discovery; Signs Easily Interpreted
TheAlmanceGleaner1921,"""Alone For Eighteen Years. Indian Woman, Abandoned on Desert Island, Finally Found by Party of Otter Hunters""",Almance (NC) Gleaner,1921-06-30,"Graham, North Carolina",35.359542,-83.8337785,"Corsicana, Texas",32.0938236,-96.464675,direct,CorsicanaDailySun1921_reprint,,Discovery; Wonder; Girl Crusoe; Wild Child; Jump Overboard
TheAmsterdamDailyDemocrat1885,"""A Feminine Crusoe. How She Lived Eighteen Years on a Desert Island. The Story of the Lost Woman of San Nicolas—Her Ingenuity and Fertility of Invention—A Wonderful History""",Amsterdam (NY) Daily Democrat,1885-06-17,"Amsterdam, New York",42.9362232,-74.1905821,"Rochester, New York",43.157285,-77.615214,truncated,Witter1885_DAC_reprint,[Fred Spalding Witter],Origins; Discovery; Indian Queen; Noble Savage; Wonder
TheAntiSlaveryBugle1853,"""A Female Crusoe""",New Lisbon (OH) Anti-Slavery Bugle,1853-12-03,"New-Lisbon, Ohio",40.7975972,-81.0946617,"Newburyport, Massachusetts",42.8116592,-70.8719271,truncated,TheDailyHerald1853_reprint,C.,Discovery; Jump Overboard; Wild Child; Noble Savage
TheArgus1857,"""A California Crusoe""",Melbourne (AUS) Argus,1857-10-09,"Melbourne, Victoria, Australia",-37.8142454,144.9631732,"San Francisco, California",37.7879363,-122.4075201,truncated,Russell1856_HCF_reprint,C. J. W. Russell,Indians as Savage; No Boat Available; Discovery; Indian Queen; Signs Easily Interpreted; Vanishing Indians; Noble Savage
TheArgus1879,No title,Melbourne (AUS) Argus,1879-05-15,"Melbourne, Victoria, Australia",-37.8142454,144.9631732,"Winona, Minnesota",44.0500054,-91.6392294,paraphrase,Stuart1878_reprint,,Noble Savage; Signs Easily Interpreted; Indian Queen
TheBannerDemocrat1901,"""The Woman of San Nicolas Island. A Strange Story of the Pacific Coast""",Lake Providence (LA) Banner-Democrat,1901-12-28,"Lake Providence, Louisiana",32.8042966,-91.170109,"Los Angeles, California",34.0536909,-118.242766,direct,FHDudley1901_reprint,[M.E. Dudley],Noble Savage; Indians as Savage; No Boat Available; Discovery; Indian Queen; Signs Easily Interpreted
TheBarberCountyIndex1887,"""A Mountain Mystery. The Strange Apparition Seen by Two Veracious California Hunters""",Barber County (KS) Index,1887-03-30,"Medicine Lodge, Kansas",37.2811339,-98.580361,"Los Angeles, California",34.0536909,-118.242766,direct,TheTimes1887_reprint,,
TheBathPlaindealer1885,"""A Female Crusoe. The Singular Story of the Lost Woman of San Nicolas. Found on an Island Where She had Remained for Sixteen Years""",Bath (NY) Plaindealer,1885-06-06,"Bath, New York",42.3370164,-77.3177577,"Rochester, New York",43.157285,-77.615214,truncated,Witter1885_DAC_reprint,[Fred Spalding Witter],Discovery; Indian Queen; Noble Savage; Wonder
TheBeloitDailyCall1921_Jul7,"""Alone For Eighteen Years. Indian Woman, Abandoned on Desert Island, Finally Found by Party of Otter Hunters""",Beloit (KS) Daily Call,1921-07-07,"Beloit, Kansas",39.458684,-98.108282,"Corsicana, Texas",32.0938236,-96.464675,direct,CorsicanaDailySun1921_reprint,,Discovery; Wonder; Girl Crusoe; Wild Child; Jump Overboard
TheBeloitDailyCall1921_Jun28,"""Alone For Eighteen Years. Indian Woman, Abandoned on Desert Island, Finally Found by Party of Otter Hunters""",Beloit (KS) Daily Call,1921-06-28,"Beloit, Kansas",39.458684,-98.108282,"Corsicana, Texas",32.0938236,-96.464675,direct,CorsicanaDailySun1921_reprint,,Discovery; Wonder; Girl Crusoe; Wild Child; Jump Overboard
TheBemidjiDailyPioneer1921,"""Alone For Eighteen Years. Indian Woman, Abandoned on Desert Island, Finally Found by Party of Otter Hunters""",Bemidji (MN) Daily Pioneer,1921-07-16,"Bemidji, Minnesota",47.4723148,-94.8832791,"Corsicana, Texas",32.0938236,-96.464675,direct,CorsicanaDailySun1921_reprint,,Discovery; Wonder; Girl Crusoe; Wild Child; Jump Overboard
TheBlueRidgeBlade1879,"""A Female Robinson Crusoe""",Morganton (NC) Blue Ridge Blade,1879-04-12,"Morganton, North Carolina",35.7454291,-81.6870837,"Winona, Minnesota",44.0500054,-91.6392294,paraphrase,Stuart1878_reprint,,Jump Overboard; Discovery; Noble Savage; Indian Queen
TheBorderWatch1879,"""Alone for Eighteen Years""",Mount Gambier (AUS) Border Watch,1879-08-02,"Mount Gambier, South Australia, Australia",-37.8301386,140.7842627,"Winona, Minnesota",44.0500054,-91.6392294,paraphrase,Stuart1878_reprint,,Noble Savage; Signs Easily Interpreted; Indian Queen
